# 
# Header Description:
# 
# Version: v3.0.6.1 Platform: 12 Manufacturer: motorola Model: moto g51 5G
# 
# Raw,utcTimeMillis,TimeNanos,LeapSecond,TimeUncertaintyNanos,FullBiasNanos,BiasNanos,BiasUncertaintyNanos,DriftNanosPerSecond,DriftUncertaintyNanosPerSecond,HardwareClockDiscontinuityCount,Svid,TimeOffsetNanos,State,ReceivedSvTimeNanos,ReceivedSvTimeUncertaintyNanos,Cn0DbHz,PseudorangeRateMetersPerSecond,PseudorangeRateUncertaintyMetersPerSecond,AccumulatedDeltaRangeState,AccumulatedDeltaRangeMeters,AccumulatedDeltaRangeUncertaintyMeters,CarrierFrequencyHz,CarrierCycles,CarrierPhase,CarrierPhaseUncertainty,MultipathIndicator,SnrInDb,ConstellationType,AgcDb,BasebandCn0DbHz,FullInterSignalBiasNanos,FullInterSignalBiasUncertaintyNanos,SatelliteInterSignalBiasNanos,SatelliteInterSignalBiasUncertaintyNanos,CodeType,ChipsetElapsedRealtimeNanos
# 
# UncalAccel,utcTimeMillis,elapsedRealtimeNanos,UncalAccelXMps2,UncalAccelYMps2,UncalAccelZMps2,BiasXMps2,BiasYMps2,BiasZMps2
# 
# Accel,utcTimeMillis,elapsedRealtimeNanos,AccelXMps2,AccelYMps2,AccelZMps2
# 
# UncalGyro,utcTimeMillis,elapsedRealtimeNanos,UncalGyroXRadPerSec,UncalGyroYRadPerSec,UncalGyroZRadPerSec,DriftXRadPerSec,DriftYRadPerSec,DriftZRadPerSec
# 
# Gyro,utcTimeMillis,elapsedRealtimeNanos,GyroXRadPerSec,GyroYRadPerSec,GyroZRadPerSec
# 
# UncalMag,utcTimeMillis,elapsedRealtimeNanos,UncalMagXMicroT,UncalMagYMicroT,UncalMagZMicroT,BiasXMicroT,BiasYMicroT,BiasZMicroT
# 
# Mag,utcTimeMillis,elapsedRealtimeNanos,MagXMicroT,MagYMicroT,MagZMicroT
# 
# OrientationDeg,utcTimeMillis,elapsedRealtimeNanos,yawDeg,rollDeg,pitchDeg
# 
# Fix,Provider,LatitudeDegrees,LongitudeDegrees,AltitudeMeters,SpeedMps,AccuracyMeters,BearingDegrees,UnixTimeMillis,SpeedAccuracyMps,BearingAccuracyDegrees,elapsedRealtimeNanos,VerticalAccuracyMeters
# 
# Nav,Svid,Type,Status,MessageId,Sub-messageId,Data(Bytes)
# 
# Status,UnixTimeMillis,SignalCount,SignalIndex,ConstellationType,Svid,CarrierFrequencyHz,Cn0DbHz,AzimuthDegrees,ElevationDegrees,UsedInFix,HasAlmanacData,HasEphemerisData,BasebandCn0DbHz
# 
Status,,27,0,1,6,1575420030,22.00,187.0,30.0,0,1,1,18.4
Status,,27,1,1,7,1575420030,32.30,127.0,50.0,1,1,1,28.699999
Status,,27,2,1,13,1575420030,23.20,294.0,25.0,0,1,1,19.6
Status,,27,3,1,14,1575420030,28.60,3.0,38.0,1,1,1,25.0
Status,,27,4,1,17,1575420030,24.30,317.0,62.0,1,1,1,20.699999
Status,,27,5,1,19,1575420030,23.70,261.0,51.0,1,1,1,20.1
Status,,27,6,1,30,1575420030,29.40,49.0,80.0,1,1,1,25.8
Status,,27,7,1,1,1575420030,0.00,52.0,28.0,0,1,1,0.0
Status,,27,8,1,3,1575420030,0.00,109.0,2.0,0,1,1,0.0
Status,,27,9,1,9,1575420030,0.00,167.0,10.0,0,1,1,0.0
Status,,27,10,1,21,1575420030,0.00,39.0,5.0,0,1,1,0.0
Status,,27,11,2,127,1575420030,33.40,0.0,0.0,0,0,0,29.800001
Status,,27,12,2,128,1575420030,35.20,0.0,0.0,0,0,0,31.6
Status,,27,13,3,14,1598062460,23.70,10.0,35.0,1,1,1,19.7
Status,,27,14,3,24,1603124990,22.80,29.0,55.0,1,1,1,18.8
Status,,27,15,3,17,1604249980,21.10,200.0,65.0,1,1,1,17.1
Status,,27,16,3,18,1600312450,0.00,203.0,15.0,0,1,1,0.0
Status,,27,17,3,13,1600875010,0.00,83.0,31.0,0,1,0,0.0
Status,,27,18,3,4,1605374980,0.00,252.0,12.0,0,1,1,0.0
Status,,27,19,6,7,1575420030,22.50,240.0,37.0,0,1,0,18.2
Status,,27,20,6,15,1575420030,21.10,133.0,63.0,1,1,0,16.8
Status,,27,21,6,30,1575420030,36.30,29.0,38.0,1,1,0,32.0
Status,,27,22,6,34,1575420030,23.60,53.0,35.0,0,1,0,19.3
Status,,27,23,6,2,1575420030,0.00,80.0,13.0,0,1,0,0.0
Status,,27,24,6,8,1575420030,0.00,182.0,21.0,0,1,0,0.0
Status,,27,25,6,13,1575420030,0.00,194.0,25.0,0,1,0,0.0
Status,,27,26,6,27,1575420030,0.00,326.0,26.0,0,1,0,0.0
Raw,1682223687423,654923083000000,18,,-1365603982340396798,-0.8193035125732422,146.94624405819923,9.236290564332256,21.214913893033884,63,7,0.0,16399,15705353577632,17,32.3,310.5213928222656,0.039794374257326126,16,0.0,0.0,1575420030,,,,0,,1,0.17,28.699999999999996,0.0,0.0,,,C,670313446288011
Raw,1682223687423,654923083000000,18,,-1365603982340396798,-0.8193035125732422,146.94624405819923,9.236290564332256,21.214913893033884,63,14,0.0,49359,26487352547504,53,23.7,-390.27777099609375,0.9254999756813049,16,0.0,0.0,1598062460,,,,0,,3,-0.25,19.7,3842.78564453125,9.87191390991211,,,C,670313446288011
Raw,1682223687423,654923083000000,18,,-1365603982340396798,-0.8193035125732422,146.94624405819923,9.236290564332256,21.214913893033884,63,15,0.0,23567,15705344160047,80,21.1,-218.39053344726562,1.7904999256134033,16,0.0,0.0,1575420030,,,,0,,6,0.12,16.8,-1477.0743408203125,8.80025577545166,,,C,670313446288011
Raw,1682223687423,654923083000000,18,,-1365603982340396798,-0.8193035125732422,146.94624405819923,9.236290564332256,21.214913893033884,63,30,0.0,23567,15705339185212,12,36.3,-48.100135803222656,0.007497570477426052,16,0.0,0.0,1575420030,,,,0,,6,0.12,31.999999999999996,-1477.0743408203125,8.80025577545166,,,C,670313446288011
Fix,GPS,13.0076189600,80.2501552900,-86.82122802734375,0.0,15.804581,,1682223688000,0.080622576,,670314016872803,15.091142
Status,1682223688000,27,0,1,6,1575420030,19.20,187.0,30.0,0,1,1,15.6
Status,1682223688000,27,1,1,7,1575420030,28.80,127.0,50.0,1,1,1,25.199999
Status,1682223688000,27,2,1,13,1575420030,23.20,294.0,25.0,0,1,1,19.6
Status,1682223688000,27,3,1,14,1575420030,19.30,3.0,38.0,1,1,1,15.699999
Status,1682223688000,27,4,1,17,1575420030,24.30,317.0,62.0,1,1,1,20.699999
Status,1682223688000,27,5,1,19,1575420030,23.70,261.0,51.0,1,1,1,20.1
Status,1682223688000,27,6,1,30,1575420030,19.20,49.0,80.0,1,1,1,15.6
Status,1682223688000,27,7,1,1,1575420030,0.00,52.0,28.0,0,1,1,0.0
Status,1682223688000,27,8,1,3,1575420030,0.00,109.0,2.0,0,1,1,0.0
Status,1682223688000,27,9,1,9,1575420030,0.00,167.0,10.0,0,1,1,0.0
Status,1682223688000,27,10,1,21,1575420030,0.00,39.0,5.0,0,1,1,0.0
Status,1682223688000,27,11,2,127,1575420030,33.40,0.0,0.0,0,0,0,29.800001
Status,1682223688000,27,12,2,128,1575420030,35.20,0.0,0.0,0,0,0,31.6
Status,1682223688000,27,13,3,14,1598062460,23.00,10.0,35.0,1,1,1,19.0
Status,1682223688000,27,14,3,24,1603124990,22.80,29.0,55.0,1,1,1,18.8
Status,1682223688000,27,15,3,17,1604249980,21.10,200.0,65.0,1,1,1,17.1
Status,1682223688000,27,16,3,18,1600312450,0.00,203.0,15.0,0,1,1,0.0
Status,1682223688000,27,17,3,13,1600875010,0.00,83.0,31.0,0,1,0,0.0
Status,1682223688000,27,18,3,4,1605374980,0.00,252.0,12.0,0,1,1,0.0
Status,1682223688000,27,19,6,7,1575420030,22.50,240.0,37.0,0,1,0,18.2
Status,1682223688000,27,20,6,15,1575420030,23.20,133.0,63.0,1,1,0,18.900002
Status,1682223688000,27,21,6,30,1575420030,37.40,29.0,38.0,1,1,0,33.100002
Status,1682223688000,27,22,6,34,1575420030,23.60,53.0,35.0,0,1,0,19.3
Status,1682223688000,27,23,6,2,1575420030,0.00,80.0,13.0,0,1,0,0.0
Status,1682223688000,27,24,6,8,1575420030,0.00,182.0,21.0,0,1,0,0.0
Status,1682223688000,27,25,6,13,1575420030,0.00,194.0,25.0,0,1,0,0.0
Status,1682223688000,27,26,6,27,1575420030,0.00,326.0,26.0,0,1,0,0.0
Raw,1682223688423,654924083000000,18,,-1365603982340396801,-0.9187450408935547,159.06877524685115,9.120621242733023,19.63669906731112,63,6,0.0,16399,15706348418244,92,19.2,-625.01953125,2.7084999084472656,16,0.0,0.0,1575420030,,,,0,,1,0.0,15.6,0.0,0.0,,,C,670314433568063
Raw,1682223688423,654924083000000,18,,-1365603982340396801,-0.9187450408935547,159.06877524685115,9.120621242733023,19.63669906731112,63,7,0.0,16399,15706353576582,24,28.8,309.232666015625,4.667051315307617,16,0.0,0.0,1575420030,,,,0,,1,0.0,25.2,0.0,0.0,,,C,670314433568063
Raw,1682223688423,654924083000000,18,,-1365603982340396801,-0.9187450408935547,159.06877524685115,9.120621242733023,19.63669906731112,63,14,0.0,16399,15706349611929,92,19.3,-92.4256362915039,2.7100000381469727,16,0.0,0.0,1575420030,,,,0,,1,0.0,15.700000000000001,0.0,0.0,,,C,670314433568063
Raw,1682223688423,654924083000000,18,,-1365603982340396801,-0.9187450408935547,159.06877524685115,9.120621242733023,19.63669906731112,63,30,0.0,16399,15706355656189,92,19.2,-79.29537200927734,2.7190001010894775,16,0.0,0.0,1575420030,,,,0,,1,0.0,15.6,0.0,0.0,,,C,670314433568063
Raw,1682223688423,654924083000000,18,,-1365603982340396801,-0.9187450408935547,159.06877524685115,9.120621242733023,19.63669906731112,63,14,0.0,49359,26488352548699,53,23.0,-392.62274169921875,0.9254999756813049,16,0.0,0.0,1598062460,,,,0,,3,-0.35,19.0,3842.78466796875,9.908843040466309,,,C,670314433568063
Raw,1682223688423,654924083000000,18,,-1365603982340396801,-0.9187450408935547,159.06877524685115,9.120621242733023,19.63669906731112,63,15,0.0,23567,15706344160848,61,23.2,-221.4352264404297,0.9194999933242798,16,0.0,0.0,1575420030,,,,0,,6,-0.03,18.9,-1477.071533203125,8.841695785522461,,,C,670314433568063
Raw,1682223688423,654924083000000,18,,-1365603982340396801,-0.9187450408935547,159.06877524685115,9.120621242733023,19.63669906731112,63,30,0.0,23567,15706339185377,11,37.4,-49.865333557128906,0.006698336917907,16,0.0,0.0,1575420030,,,,0,,6,-0.03,33.1,-1477.071533203125,8.841695785522461,,,C,670314433568063
Fix,GPS,13.0076221100,80.2501479700,-86.84600830078125,0.0,15.346019,,1682223689000,0.072111025,,670315016941240,14.657905
Status,1682223689000,27,0,1,6,1575420030,19.20,187.0,30.0,1,1,1,15.6
Status,1682223689000,27,1,1,7,1575420030,32.10,127.0,50.0,1,1,1,28.499998
Status,1682223689000,27,2,1,13,1575420030,23.20,294.0,25.0,0,1,1,19.6
Status,1682223689000,27,3,1,14,1575420030,19.30,3.0,38.0,1,1,1,15.699999
Status,1682223689000,27,4,1,17,1575420030,24.30,317.0,62.0,1,1,1,20.699999
Status,1682223689000,27,5,1,19,1575420030,23.70,261.0,51.0,1,1,1,20.1
Status,1682223689000,27,6,1,30,1575420030,22.90,49.0,80.0,1,1,1,19.3
Status,1682223689000,27,7,1,1,1575420030,0.00,52.0,28.0,0,1,1,0.0
Status,1682223689000,27,8,1,3,1575420030,0.00,109.0,2.0,0,1,1,0.0
Status,1682223689000,27,9,1,9,1575420030,0.00,167.0,10.0,0,1,1,0.0
Status,1682223689000,27,10,1,21,1575420030,0.00,39.0,5.0,0,1,1,0.0
Status,1682223689000,27,11,2,127,1575420030,33.40,0.0,0.0,0,0,0,29.800001
Status,1682223689000,27,12,2,128,1575420030,35.20,0.0,0.0,0,0,0,31.6
Status,1682223689000,27,13,3,14,1598062460,23.00,10.0,35.0,1,1,1,19.0
Status,1682223689000,27,14,3,24,1603124990,19.80,29.0,55.0,1,1,1,15.799999
Status,1682223689000,27,15,3,17,1604249980,21.10,200.0,65.0,1,1,1,17.1
Status,1682223689000,27,16,3,18,1600312450,0.00,203.0,15.0,0,1,1,0.0
Status,1682223689000,27,17,3,13,1600875010,0.00,83.0,31.0,0,1,0,0.0
Status,1682223689000,27,18,3,4,1605374980,0.00,252.0,12.0,0,1,1,0.0
Status,1682223689000,27,19,6,7,1575420030,22.50,240.0,37.0,0,1,0,18.2
Status,1682223689000,27,20,6,15,1575420030,23.60,133.0,63.0,1,1,0,19.3
Status,1682223689000,27,21,6,30,1575420030,37.90,29.0,38.0,1,1,0,33.600002
Status,1682223689000,27,22,6,34,1575420030,23.60,53.0,35.0,0,1,0,19.3
Status,1682223689000,27,23,6,2,1575420030,0.00,80.0,13.0,0,1,0,0.0
Status,1682223689000,27,24,6,8,1575420030,0.00,182.0,21.0,0,1,0,0.0
Status,1682223689000,27,25,6,13,1575420030,0.00,194.0,25.0,0,1,0,0.0
Status,1682223689000,27,26,6,27,1575420030,0.00,326.0,26.0,0,1,0,0.0
Raw,1682223689423,654925083000000,18,,-1365603982340396804,-0.06451225280761719,155.40339518338442,5.222387757671763,22.786960536568717,63,7,0.0,16399,15707353575590,17,32.1,305.99224853515625,7.461247444152832,16,0.0,0.0,1575420030,,,,0,,1,0.02,28.5,0.0,0.0,,,C,670315438350979
Raw,1682223689423,654925083000000,18,,-1365603982340396804,-0.06451225280761719,155.40339518338442,5.222387757671763,22.786960536568717,63,30,0.0,16399,15707355656259,53,22.9,-82.61599731445312,1.0010000467300415,16,0.0,0.0,1575420030,,,,0,,1,0.02,19.299999999999997,0.0,0.0,,,C,670315438350979
Raw,1682223689423,654925083000000,18,,-1365603982340396804,-0.06451225280761719,155.40339518338442,5.222387757671763,22.786960536568717,63,24,0.0,49359,26489356785495,92,19.8,434.8241271972656,2.7204999923706055,16,0.0,0.0,1603124990,,,,0,,3,-0.35,15.8,3842.78369140625,9.945718765258789,,,C,670315438350979
Raw,1682223689423,654925083000000,18,,-1365603982340396804,-0.06451225280761719,155.40339518338442,5.222387757671763,22.786960536568717,63,15,0.0,23567,15707344161543,53,23.6,-223.6236114501953,0.9194999933242798,16,0.0,0.0,1575420030,,,,0,,6,0.0,19.3,-1477.0699462890625,8.883050918579102,,,C,670315438350979
Raw,1682223689423,654925083000000,18,,-1365603982340396804,-0.06451225280761719,155.40339518338442,5.222387757671763,22.786960536568717,63,30,0.0,23567,15707339185550,11,37.9,-53.29027557373047,0.006698336917907,16,0.0,0.0,1575420030,,,,0,,6,0.0,33.6,-1477.0699462890625,8.883050918579102,,,C,670315438350979
Fix,GPS,13.0076236500,80.2501443200,-86.86367797851562,0.0,14.453412,,1682223690000,0.080622576,,670316017510458,13.806511
Status,1682223690000,27,0,1,6,1575420030,19.20,187.0,30.0,1,1,1,15.6
Status,1682223690000,27,1,1,7,1575420030,32.40,127.0,50.0,1,1,1,28.800001
Status,1682223690000,27,2,1,13,1575420030,23.20,294.0,25.0,0,1,1,19.6
Status,1682223690000,27,3,1,14,1575420030,19.30,3.0,38.0,1,1,1,15.699999
Status,1682223690000,27,4,1,17,1575420030,24.30,317.0,62.0,1,1,1,20.699999
Status,1682223690000,27,5,1,19,1575420030,23.70,261.0,51.0,1,1,1,20.1
Status,1682223690000,27,6,1,30,1575420030,23.60,49.0,80.0,1,1,1,20.0
Status,1682223690000,27,7,1,1,1575420030,0.00,52.0,28.0,0,1,1,0.0
Status,1682223690000,27,8,1,3,1575420030,0.00,109.0,2.0,0,1,1,0.0
Status,1682223690000,27,9,1,9,1575420030,0.00,167.0,10.0,0,1,1,0.0
Status,1682223690000,27,10,1,21,1575420030,0.00,39.0,5.0,0,1,1,0.0
Status,1682223690000,27,11,2,127,1575420030,33.40,0.0,0.0,0,0,0,29.800001
Status,1682223690000,27,12,2,128,1575420030,35.20,0.0,0.0,0,0,0,31.6
Status,1682223690000,27,13,3,14,1598062460,20.70,10.0,35.0,1,1,1,16.7
Status,1682223690000,27,14,3,24,1603124990,23.10,29.0,55.0,1,1,1,19.1
Status,1682223690000,27,15,3,17,1604249980,21.10,200.0,65.0,1,1,1,17.1
Status,1682223690000,27,16,3,18,1600312450,0.00,203.0,15.0,0,1,1,0.0
Status,1682223690000,27,17,3,13,1600875010,0.00,83.0,31.0,0,1,0,0.0
Status,1682223690000,27,18,3,4,1605374980,0.00,252.0,12.0,0,1,1,0.0
Status,1682223690000,27,19,6,7,1575420030,22.50,240.0,37.0,0,1,0,18.2
Status,1682223690000,27,20,6,15,1575420030,25.00,133.0,63.0,1,1,0,20.7
Status,1682223690000,27,21,6,30,1575420030,38.30,29.0,38.0,1,1,0,34.0
Status,1682223690000,27,22,6,34,1575420030,23.60,53.0,35.0,0,1,0,19.3
Status,1682223690000,27,23,6,2,1575420030,0.00,80.0,13.0,0,1,0,0.0
Status,1682223690000,27,24,6,8,1575420030,0.00,182.0,21.0,0,1,0,0.0
Status,1682223690000,27,25,6,13,1575420030,0.00,194.0,25.0,0,1,0,0.0
Status,1682223690000,27,26,6,27,1575420030,0.00,326.0,26.0,0,1,0,0.0
Raw,1682223690423,654926083000000,18,,-1365603982340396815,-0.41919708251953125,151.424843352288,-3.3207934948699194,20.751092995756824,63,7,0.0,16399,15708353574519,17,32.4,307.9525451660156,0.6106753945350647,16,0.0,0.0,1575420030,,,,0,,1,0.09,28.799999999999997,0.0,0.0,,,C,670316433819885
Raw,1682223690423,654926083000000,18,,-1365603982340396815,-0.41919708251953125,151.424843352288,-3.3207934948699194,20.751092995756824,63,30,0.0,16399,15708355656651,46,23.6,-80.0946044921875,0.9210000038146973,16,0.0,0.0,1575420030,,,,0,,1,0.09,20.0,0.0,0.0,,,C,670316433819885
Raw,1682223690423,654926083000000,18,,-1365603982340396815,-0.41919708251953125,151.424843352288,-3.3207934948699194,20.751092995756824,63,14,0.0,49359,26490352551137,80,20.7,-392.78216552734375,1.874500036239624,16,0.0,0.0,1598062460,,,,0,,3,-0.3,16.7,3842.78125,9.982402801513672,,,C,670316433819885
Raw,1682223690423,654926083000000,18,,-1365603982340396815,-0.41919708251953125,151.424843352288,-3.3207934948699194,20.751092995756824,63,24,0.0,49359,26490356784001,53,23.1,436.49786376953125,0.9194999933242798,16,0.0,0.0,1603124990,,,,0,,3,-0.3,19.1,3842.78125,9.982402801513672,,,C,670316433819885
Raw,1682223690423,654926083000000,18,,-1365603982340396815,-0.41919708251953125,151.424843352288,-3.3207934948699194,20.751092995756824,63,15,0.0,23567,15708344162302,46,25.0,-221.4352264404297,0.7894999980926514,16,0.0,0.0,1575420030,,,,0,,6,0.06,20.7,-1477.067626953125,8.924125671386719,,,C,670316433819885
Raw,1682223690423,654926083000000,18,,-1365603982340396815,-0.41919708251953125,151.424843352288,-3.3207934948699194,20.751092995756824,63,30,0.0,23567,15708339185723,10,38.3,-51.06791305541992,0.005899103824049234,16,0.0,0.0,1575420030,,,,0,,6,0.06,34.0,-1477.067626953125,8.924125671386719,,,C,670316433819885
Fix,GPS,13.0076244200,80.2501424600,-86.86566162109375,0.0,13.137176,,1682223691000,0.080622576,,670317016719833,12.550232
Status,1682223691000,27,0,1,6,1575420030,18.30,187.0,30.0,1,1,1,14.699999
Status,1682223691000,27,1,1,7,1575420030,32.60,127.0,50.0,1,1,1,28.999998
Status,1682223691000,27,2,1,13,1575420030,23.20,294.0,25.0,0,1,1,19.6
Status,1682223691000,27,3,1,14,1575420030,19.30,3.0,38.0,1,1,1,15.699999
Status,1682223691000,27,4,1,17,1575420030,17.40,317.0,62.0,1,1,1,13.799999
Status,1682223691000,27,5,1,19,1575420030,23.70,261.0,51.0,1,1,1,20.1
Status,1682223691000,27,6,1,30,1575420030,21.60,49.0,80.0,1,1,1,18.0
Status,1682223691000,27,7,1,1,1575420030,0.00,52.0,28.0,0,1,1,0.0
Status,1682223691000,27,8,1,3,1575420030,0.00,109.0,2.0,0,1,1,0.0
Status,1682223691000,27,9,1,9,1575420030,0.00,167.0,10.0,0,1,1,0.0
Status,1682223691000,27,10,1,21,1575420030,0.00,39.0,5.0,0,1,1,0.0
Status,1682223691000,27,11,2,127,1575420030,33.40,0.0,0.0,0,0,0,29.800001
Status,1682223691000,27,12,2,128,1575420030,35.20,0.0,0.0,0,0,0,31.6
Status,1682223691000,27,13,3,14,1598062460,20.70,10.0,35.0,1,1,1,16.7
Status,1682223691000,27,14,3,24,1603124990,22.20,29.0,55.0,1,1,1,18.2
Status,1682223691000,27,15,3,17,1604249980,21.10,200.0,65.0,1,1,1,17.1
Status,1682223691000,27,16,3,18,1600312450,0.00,203.0,15.0,0,1,1,0.0
Status,1682223691000,27,17,3,13,1600875010,0.00,83.0,31.0,0,1,0,0.0
Status,1682223691000,27,18,3,4,1605374980,0.00,252.0,12.0,0,1,1,0.0
Status,1682223691000,27,19,6,7,1575420030,22.50,240.0,37.0,0,1,0,18.2
Status,1682223691000,27,20,6,15,1575420030,25.00,133.0,63.0,1,1,0,20.7
Status,1682223691000,27,21,6,30,1575420030,38.40,29.0,38.0,1,1,0,34.100002
Status,1682223691000,27,22,6,34,1575420030,23.60,53.0,35.0,0,1,0,19.3
Status,1682223691000,27,23,6,2,1575420030,0.00,80.0,13.0,0,1,0,0.0
Status,1682223691000,27,24,6,8,1575420030,0.00,182.0,21.0,0,1,0,0.0
Status,1682223691000,27,25,6,13,1575420030,0.00,194.0,25.0,0,1,0,0.0
Status,1682223691000,27,26,6,27,1575420030,0.00,326.0,26.0,0,1,0,0.0
Raw,1682223691423,654927083000000,18,,-1365603982340396808,-0.147430419921875,149.78674880694598,-0.1535944888933463,26.18876550161201,63,6,0.0,16399,15709348424471,106,18.3,-625.8378295898438,2.808500051498413,16,0.0,0.0,1575420030,,,,0,,1,0.07,14.700000000000001,0.0,0.0,,,C,670317440647280
Raw,1682223691423,654927083000000,18,,-1365603982340396808,-0.147430419921875,149.78674880694598,-0.1535944888933463,26.18876550161201,63,7,0.0,16399,15709353573528,16,32.6,308.4393615722656,0.03840523213148117,16,0.0,0.0,1575420030,,,,0,,1,0.07,29.0,0.0,0.0,,,C,670317440647280
Raw,1682223691423,654927083000000,18,,-1365603982340396808,-0.147430419921875,149.78674880694598,-0.1535944888933463,26.18876550161201,63,17,0.0,16399,15709354384880,122,17.4,208.15272521972656,5.1875,16,0.0,0.0,1575420030,,,,0,,1,0.07,13.799999999999999,0.0,0.0,,,C,670317440647280
Raw,1682223691423,654927083000000,18,,-1365603982340396808,-0.147430419921875,149.78674880694598,-0.1535944888933463,26.18876550161201,63,30,0.0,16399,15709355656908,61,21.6,-79.0765380859375,1.0809999704360962,16,0.0,0.0,1575420030,,,,0,,1,0.07,18.0,0.0,0.0,,,C,670317440647280
Raw,1682223691423,654927083000000,18,,-1365603982340396808,-0.147430419921875,149.78674880694598,-0.1535944888933463,26.18876550161201,63,24,0.0,49359,26491356782592,61,22.2,435.90875244140625,0.999500036239624,16,0.0,0.0,1603124990,,,,0,,3,-0.3,18.2,3842.78369140625,10.018810272216797,,,C,670317440647280
Raw,1682223691423,654927083000000,18,,-1365603982340396808,-0.147430419921875,149.78674880694598,-0.1535944888933463,26.18876550161201,63,15,0.0,23567,15709344163022,46,25.0,-220.74017333984375,0.06374327838420868,16,0.0,0.0,1575420030,,,,0,,6,0.03,20.7,-1477.0682373046875,8.964778900146484,,,C,670317440647280
Raw,1682223691423,654927083000000,18,,-1365603982340396808,-0.147430419921875,149.78674880694598,-0.1535944888933463,26.18876550161201,63,30,0.0,23567,15709339185892,10,38.4,-50.6656379699707,0.005899103824049234,16,0.0,0.0,1575420030,,,,0,,6,0.03,34.1,-1477.0682373046875,8.964778900146484,,,C,670317440647280
Fix,GPS,13.0076247900,80.2501415500,-86.8658447265625,0.0,11.954144,,1682223692000,0.080622576,,670318017067280,11.42211
Status,1682223692000,27,0,1,6,1575420030,18.30,187.0,30.0,1,1,1,14.699999
Status,1682223692000,27,1,1,7,1575420030,32.10,127.0,50.0,1,1,1,28.499998
Status,1682223692000,27,2,1,13,1575420030,23.20,294.0,25.0,0,1,1,19.6
Status,1682223692000,27,3,1,14,1575420030,19.30,3.0,38.0,1,1,1,15.699999
Status,1682223692000,27,4,1,17,1575420030,17.40,317.0,62.0,1,1,1,13.799999
Status,1682223692000,27,5,1,19,1575420030,23.70,261.0,51.0,0,1,1,20.1
Status,1682223692000,27,6,1,30,1575420030,22.80,49.0,80.0,1,1,1,19.199999
Status,1682223692000,27,7,1,1,1575420030,0.00,52.0,28.0,0,1,1,0.0
Status,1682223692000,27,8,1,3,1575420030,0.00,109.0,2.0,0,1,1,0.0
Status,1682223692000,27,9,1,9,1575420030,0.00,167.0,10.0,0,1,1,0.0
Status,1682223692000,27,10,1,21,1575420030,0.00,39.0,5.0,0,1,1,0.0
Status,1682223692000,27,11,2,127,1575420030,33.40,0.0,0.0,0,0,0,29.800001
Status,1682223692000,27,12,2,128,1575420030,35.20,0.0,0.0,0,0,0,31.6
Status,1682223692000,27,13,3,14,1598062460,20.70,10.0,35.0,1,1,1,16.7
Status,1682223692000,27,14,3,24,1603124990,23.00,29.0,55.0,1,1,1,19.0
Status,1682223692000,27,15,3,17,1604249980,21.10,200.0,65.0,1,1,1,17.1
Status,1682223692000,27,16,3,18,1600312450,0.00,203.0,15.0,0,1,1,0.0
Status,1682223692000,27,17,3,13,1600875010,0.00,83.0,31.0,0,1,0,0.0
Status,1682223692000,27,18,3,4,1605374980,0.00,252.0,12.0,0,1,1,0.0
Status,1682223692000,27,19,6,7,1575420030,22.50,240.0,37.0,0,1,0,18.2
Status,1682223692000,27,20,6,15,1575420030,23.70,133.0,63.0,1,1,0,19.400002
Status,1682223692000,27,21,6,30,1575420030,38.30,29.0,38.0,1,1,0,34.0
Status,1682223692000,27,22,6,34,1575420030,23.60,53.0,35.0,0,1,0,19.3
Status,1682223692000,27,23,6,2,1575420030,0.00,80.0,13.0,0,1,0,0.0
Status,1682223692000,27,24,6,8,1575420030,0.00,182.0,21.0,0,1,0,0.0
Status,1682223692000,27,25,6,13,1575420030,0.00,194.0,25.0,0,1,0,0.0
Status,1682223692000,27,26,6,27,1575420030,0.00,326.0,26.0,0,1,0,0.0
Raw,1682223692423,654928083000000,18,,-1365603982340396805,-0.286407470703125,134.3146723229438,0.8965111039103975,20.97455519795616,63,7,0.0,16399,15710353572474,17,32.1,308.4557189941406,0.039794374257326126,16,0.0,0.0,1575420030,,,,0,,1,0.0,28.5,0.0,0.0,,,C,670318443308530
Raw,1682223692423,654928083000000,18,,-1365603982340396805,-0.286407470703125,134.3146723229438,0.8965111039103975,20.97455519795616,63,30,0.0,16399,15710355657204,53,22.8,-79.5522689819336,1.0010000467300415,16,0.0,0.0,1575420030,,,,0,,1,0.0,19.2,0.0,0.0,,,C,670318443308530
Raw,1682223692423,654928083000000,18,,-1365603982340396805,-0.286407470703125,134.3146723229438,0.8965111039103975,20.97455519795616,63,14,0.0,49359,26492352553916,80,20.7,-392.79156494140625,1.874500036239624,16,0.0,0.0,1598062460,,,,0,,3,-0.34,16.7,3842.7861328125,10.055088996887207,,,C,670318443308530
Raw,1682223692423,654928083000000,18,,-1365603982340396805,-0.286407470703125,134.3146723229438,0.8965111039103975,20.97455519795616,63,24,0.0,49359,26492356780975,53,23.0,435.65631103515625,0.9194999933242798,16,0.0,0.0,1603124990,,,,0,,3,-0.34,19.0,3842.7861328125,10.055088996887207,,,C,670318443308530
Raw,1682223692423,654928083000000,18,,-1365603982340396805,-0.286407470703125,134.3146723229438,0.8965111039103975,20.97455519795616,63,15,0.0,23567,15710344163735,53,23.7,-220.71304321289062,0.11908067762851715,16,0.0,0.0,1575420030,,,,0,,6,0.0,19.4,-1477.0682373046875,9.005224227905273,,,C,670318443308530
Raw,1682223692423,654928083000000,18,,-1365603982340396805,-0.286407470703125,134.3146723229438,0.8965111039103975,20.97455519795616,63,30,0.0,23567,15710339186058,10,38.3,-50.796390533447266,0.005899103824049234,16,0.0,0.0,1575420030,,,,0,,6,0.0,34.0,-1477.0682373046875,9.005224227905273,,,C,670318443308530
Fix,GPS,13.0076249500,80.2501410400,-86.8792724609375,0.0,11.936308,,1682223693000,0.080622576,,670319017207853,11.406049
Status,1682223693000,27,0,1,6,1575420030,18.30,187.0,30.0,1,1,1,14.699999
Status,1682223693000,27,1,1,7,1575420030,32.80,127.0,50.0,1,1,1,29.199999
Status,1682223693000,27,2,1,13,1575420030,23.20,294.0,25.0,0,1,1,19.6
Status,1682223693000,27,3,1,14,1575420030,19.30,3.0,38.0,1,1,1,15.699999
Status,1682223693000,27,4,1,17,1575420030,17.40,317.0,62.0,1,1,1,13.799999
Status,1682223693000,27,5,1,19,1575420030,23.70,261.0,51.0,0,1,1,20.1
Status,1682223693000,27,6,1,30,1575420030,22.50,49.0,80.0,1,1,1,18.9
Status,1682223693000,27,7,1,1,1575420030,0.00,52.0,28.0,0,1,1,0.0
Status,1682223693000,27,8,1,3,1575420030,0.00,109.0,2.0,0,1,1,0.0
Status,1682223693000,27,9,1,9,1575420030,0.00,167.0,10.0,0,1,1,0.0
Status,1682223693000,27,10,1,21,1575420030,0.00,39.0,5.0,0,1,1,0.0
Status,1682223693000,27,11,2,127,1575420030,33.40,0.0,0.0,0,0,0,29.800001
Status,1682223693000,27,12,2,128,1575420030,35.20,0.0,0.0,0,0,0,31.6
Status,1682223693000,27,13,3,14,1598062460,20.70,10.0,35.0,1,1,1,16.7
Status,1682223693000,27,14,3,24,1603124990,22.90,29.0,55.0,1,1,1,18.9
Status,1682223693000,27,15,3,17,1604249980,21.10,200.0,65.0,0,1,1,17.1
Status,1682223693000,27,16,3,18,1600312450,0.00,203.0,15.0,0,1,1,0.0
Status,1682223693000,27,17,3,13,1600875010,0.00,83.0,31.0,0,1,0,0.0
Status,1682223693000,27,18,3,4,1605374980,0.00,252.0,12.0,0,1,1,0.0
Status,1682223693000,27,19,6,7,1575420030,22.50,240.0,37.0,0,1,0,18.2
Status,1682223693000,27,20,6,15,1575420030,24.70,133.0,63.0,1,1,0,20.400002
Status,1682223693000,27,21,6,30,1575420030,38.10,29.0,38.0,1,1,0,33.8
Status,1682223693000,27,22,6,34,1575420030,23.60,53.0,35.0,0,1,0,19.3
Status,1682223693000,27,23,6,2,1575420030,0.00,80.0,13.0,0,1,0,0.0
Status,1682223693000,27,24,6,8,1575420030,0.00,182.0,21.0,0,1,0,0.0
Status,1682223693000,27,25,6,13,1575420030,0.00,194.0,25.0,0,1,0,0.0
Status,1682223693000,27,26,6,27,1575420030,0.00,326.0,26.0,0,1,0,0.0
Raw,1682223693423,654929083000000,18,,-1365603982340396804,-0.6307563781738281,139.3545389873907,0.6839063954977236,21.501002708298614,63,7,0.0,16399,15711353571442,16,32.8,306.4546813964844,0.03840523213148117,16,0.0,0.0,1575420030,,,,0,,1,0.0,29.199999999999996,0.0,0.0,,,C,670319445607175
Raw,1682223693423,654929083000000,18,,-1365603982340396804,-0.6307563781738281,139.3545389873907,0.6839063954977236,21.501002708298614,63,30,0.0,16399,15711355657365,61,22.5,-82.34007263183594,1.0010000467300415,16,0.0,0.0,1575420030,,,,0,,1,0.0,18.9,0.0,0.0,,,C,670319445607175
Raw,1682223693423,654929083000000,18,,-1365603982340396804,-0.6307563781738281,139.3545389873907,0.6839063954977236,21.501002708298614,63,24,0.0,49359,26493356779824,61,22.9,435.2261962890625,0.984499990940094,16,0.0,0.0,1603124990,,,,0,,3,-0.38,18.9,3842.78955078125,10.091371536254883,,,C,670319445607175
Raw,1682223693423,654929083000000,18,,-1365603982340396804,-0.6307563781738281,139.3545389873907,0.6839063954977236,21.501002708298614,63,15,0.0,23567,15711344164453,46,24.7,-222.9166717529297,1.7613863945007324,16,0.0,0.0,1575420030,,,,0,,6,-0.03,20.4,-1477.0675048828125,9.045655250549316,,,C,670319445607175
Raw,1682223693423,654929083000000,18,,-1365603982340396804,-0.6307563781738281,139.3545389873907,0.6839063954977236,21.501002708298614,63,30,0.0,23567,15711339186234,11,38.1,-52.89189529418945,0.006698336917907,16,0.0,0.0,1575420030,,,,0,,6,-0.03,33.800000000000004,-1477.0675048828125,9.045655250549316,,,C,670319445607175
Fix,GPS,13.0076250500,80.2501407800,-86.8792724609375,0.0,11.54259,,1682223694000,0.080622576,,670320017546655,11.030739
Status,1682223694000,27,0,1,6,1575420030,19.00,187.0,30.0,1,1,1,15.4
Status,1682223694000,27,1,1,7,1575420030,32.40,127.0,50.0,1,1,1,28.800001
Status,1682223694000,27,2,1,13,1575420030,23.20,294.0,25.0,0,1,1,19.6
Status,1682223694000,27,3,1,14,1575420030,19.30,3.0,38.0,1,1,1,15.699999
Status,1682223694000,27,4,1,17,1575420030,18.70,317.0,62.0,1,1,1,15.1
Status,1682223694000,27,5,1,19,1575420030,23.70,261.0,51.0,0,1,1,20.1
Status,1682223694000,27,6,1,30,1575420030,23.90,49.0,80.0,1,1,1,20.3
Status,1682223694000,27,7,1,1,1575420030,0.00,52.0,28.0,0,1,1,0.0
Status,1682223694000,27,8,1,3,1575420030,0.00,109.0,2.0,0,1,1,0.0
Status,1682223694000,27,9,1,9,1575420030,0.00,167.0,10.0,0,1,1,0.0
Status,1682223694000,27,10,1,21,1575420030,0.00,39.0,5.0,0,1,1,0.0
Status,1682223694000,27,11,2,127,1575420030,33.40,0.0,0.0,0,0,0,29.800001
Status,1682223694000,27,12,2,128,1575420030,35.20,0.0,0.0,0,0,0,31.6
Status,1682223694000,27,13,3,14,1598062460,21.80,10.0,35.0,1,1,1,17.8
Status,1682223694000,27,14,3,24,1603124990,23.80,29.0,55.0,1,1,1,19.8
Status,1682223694000,27,15,3,17,1604249980,21.10,200.0,65.0,0,1,1,17.1
Status,1682223694000,27,16,3,18,1600312450,0.00,203.0,15.0,0,1,1,0.0
Status,1682223694000,27,17,3,13,1600875010,0.00,83.0,31.0,0,1,0,0.0
Status,1682223694000,27,18,3,4,1605374980,0.00,252.0,12.0,0,1,1,0.0
Status,1682223694000,27,19,6,15,1575420030,24.70,133.0,63.0,1,1,0,20.400002
Status,1682223694000,27,20,6,30,1575420030,38.10,29.0,38.0,1,1,0,33.8
Status,1682223694000,27,21,6,34,1575420030,23.60,53.0,35.0,0,1,0,19.3
Status,1682223694000,27,22,6,2,1575420030,0.00,80.0,13.0,0,1,0,0.0
Status,1682223694000,27,23,6,7,1575420030,0.00,240.0,37.0,0,1,0,0.0
Status,1682223694000,27,24,6,8,1575420030,0.00,182.0,21.0,0,1,0,0.0
Status,1682223694000,27,25,6,13,1575420030,0.00,194.0,25.0,0,1,0,0.0
Status,1682223694000,27,26,6,27,1575420030,0.00,326.0,26.0,0,1,0,0.0
Raw,1682223694423,654930083000000,18,,-1365603982340396808,-0.26663970947265625,139.27729742135853,-4.425980878563356,20.017507175374586,63,6,0.0,16399,15712348430711,92,19.0,-625.343017578125,2.7084999084472656,16,0.0,0.0,1575420030,,,,0,,1,0.0,15.4,0.0,0.0,,,C,670320435598998
Raw,1682223694423,654930083000000,18,,-1365603982340396808,-0.26663970947265625,139.27729742135853,-4.425980878563356,20.017507175374586,63,7,0.0,16399,15712353570406,17,32.4,308.4150085449219,1.1815564632415771,16,0.0,0.0,1575420030,,,,0,,1,0.0,28.799999999999997,0.0,0.0,,,C,670320435598998
Raw,1682223694423,654930083000000,18,,-1365603982340396808,-0.26663970947265625,139.27729742135853,-4.425980878563356,20.017507175374586,63,17,0.0,16399,15712354382906,92,18.7,208.1051483154297,2.817500114440918,16,0.0,0.0,1575420030,,,,0,,1,0.0,15.1,0.0,0.0,,,C,670320435598998
Raw,1682223694423,654930083000000,18,,-1365603982340396808,-0.26663970947265625,139.27729742135853,-4.425980878563356,20.017507175374586,63,30,0.0,16399,15712355657821,46,23.9,-79.3810043334961,0.9210000038146973,16,0.0,0.0,1575420030,,,,0,,1,0.0,20.299999999999997,0.0,0.0,,,C,670320435598998
Raw,1682223694423,654930083000000,18,,-1365603982340396808,-0.26663970947265625,139.27729742135853,-4.425980878563356,20.017507175374586,63,14,0.0,49359,26494352556633,70,21.8,-394.49871826171875,1.7844998836517334,16,0.0,0.0,1598062460,,,,0,,3,-0.34,17.8,3842.78955078125,10.12783145904541,,,C,670320435598998
Raw,1682223694423,654930083000000,18,,-1365603982340396808,-0.26663970947265625,139.27729742135853,-4.425980878563356,20.017507175374586,63,24,0.0,49359,26494356778245,53,23.8,437.16168212890625,0.9194999933242798,16,0.0,0.0,1603124990,,,,0,,3,-0.34,19.8,3842.78955078125,10.12783145904541,,,C,670320435598998
Raw,1682223694423,654930083000000,18,,-1365603982340396808,-0.26663970947265625,139.27729742135853,-4.425980878563356,20.017507175374586,63,15,0.0,23567,15712344165215,46,24.7,-220.68727111816406,3.4890294075012207,16,0.0,0.0,1575420030,,,,0,,6,0.0,20.4,-1477.0675048828125,9.086311340332031,,,C,670320435598998
Raw,1682223694423,654930083000000,18,,-1365603982340396808,-0.26663970947265625,139.27729742135853,-4.425980878563356,20.017507175374586,63,30,0.0,23567,15712339186406,11,38.1,-51.127925872802734,0.006698336917907,16,0.0,0.0,1575420030,,,,0,,6,0.0,33.800000000000004,-1477.0675048828125,9.086311340332031,,,C,670320435598998
Fix,GPS,13.0076251300,80.2501405800,-86.85934448242188,0.0,11.47737,,1682223695000,0.080622576,,670321017570092,10.970641
Status,1682223695000,28,0,1,6,1575420030,19.00,187.0,30.0,1,1,1,15.4
Status,1682223695000,28,1,1,7,1575420030,32.60,127.0,50.0,1,1,1,28.999998
Status,1682223695000,28,2,1,13,1575420030,23.20,294.0,25.0,0,1,1,19.6
Status,1682223695000,28,3,1,14,1575420030,16.20,3.0,38.0,0,1,1,12.6
Status,1682223695000,28,4,1,17,1575420030,18.70,317.0,62.0,1,1,1,15.1
Status,1682223695000,28,5,1,19,1575420030,23.70,261.0,51.0,0,1,1,20.1
Status,1682223695000,28,6,1,30,1575420030,22.50,49.0,80.0,1,1,1,18.9
Status,1682223695000,28,7,1,1,1575420030,0.00,52.0,28.0,0,1,1,0.0
Status,1682223695000,28,8,1,3,1575420030,0.00,109.0,2.0,0,1,1,0.0
Status,1682223695000,28,9,1,9,1575420030,0.00,167.0,10.0,0,1,1,0.0
Status,1682223695000,28,10,1,21,1575420030,0.00,39.0,5.0,0,1,1,0.0
Status,1682223695000,28,11,4,195,1575420030,20.20,56.0,27.0,0,1,0,16.6
Status,1682223695000,28,12,2,127,1575420030,33.40,0.0,0.0,0,0,0,29.800001
Status,1682223695000,28,13,2,128,1575420030,35.20,0.0,0.0,0,0,0,31.6
Status,1682223695000,28,14,3,14,1598062460,22.70,10.0,35.0,1,1,1,18.7
Status,1682223695000,28,15,3,24,1603124990,23.00,29.0,55.0,1,1,1,19.0
Status,1682223695000,28,16,3,17,1604249980,21.10,200.0,65.0,0,1,1,17.1
Status,1682223695000,28,17,3,18,1600312450,0.00,203.0,15.0,0,1,1,0.0
Status,1682223695000,28,18,3,13,1600875010,0.00,83.0,31.0,0,1,0,0.0
Status,1682223695000,28,19,3,4,1605374980,0.00,252.0,12.0,0,1,1,0.0
Status,1682223695000,28,20,6,15,1575420030,24.60,133.0,63.0,1,1,0,20.3
Status,1682223695000,28,21,6,30,1575420030,38.40,29.0,38.0,1,1,0,34.100002
Status,1682223695000,28,22,6,34,1575420030,23.60,53.0,35.0,0,1,0,19.3
Status,1682223695000,28,23,6,2,1575420030,0.00,80.0,13.0,0,1,0,0.0
Status,1682223695000,28,24,6,7,1575420030,0.00,240.0,37.0,0,1,0,0.0
Status,1682223695000,28,25,6,8,1575420030,0.00,182.0,21.0,0,1,0,0.0
Status,1682223695000,28,26,6,13,1575420030,0.00,194.0,25.0,0,1,0,0.0
Status,1682223695000,28,27,6,27,1575420030,0.00,326.0,26.0,0,1,0,0.0
Raw,1682223695423,654931083000000,18,,-1365603982340396812,-0.28995323181152344,138.7154625263065,-2.1315831190974657,21.424670260804803,63,7,0.0,16399,15713353569393,16,32.6,308.01995849609375,0.03840523213148117,16,0.0,0.0,1575420030,,,,0,,1,0.02,29.0,0.0,0.0,,,C,670321433539518
Raw,1682223695423,654931083000000,18,,-1365603982340396812,-0.28995323181152344,138.7154625263065,-2.1315831190974657,21.424670260804803,63,14,0.0,16399,15713349614047,139,16.2,-93.71012115478516,6.050000190734863,16,0.0,0.0,1575420030,,,,0,,1,0.02,12.6,0.0,0.0,,,C,670321433539518
Raw,1682223695423,654931083000000,18,,-1365603982340396812,-0.28995323181152344,138.7154625263065,-2.1315831190974657,21.424670260804803,63,30,0.0,16399,15713355657911,61,22.5,-79.83771514892578,1.0010000467300415,16,0.0,0.0,1575420030,,,,0,,1,0.02,18.9,0.0,0.0,,,C,670321433539518
Raw,1682223695423,654931083000000,18,,-1365603982340396812,-0.28995323181152344,138.7154625263065,-2.1315831190974657,21.424670260804803,63,14,0.0,49359,26495352557895,61,22.7,-393.25115966796875,1.005500078201294,16,0.0,0.0,1598062460,,,,0,,3,-0.36,18.7,3842.78955078125,10.13821029663086,,,C,670321433539518
Raw,1682223695423,654931083000000,18,,-1365603982340396812,-0.28995323181152344,138.7154625263065,-2.1315831190974657,21.424670260804803,63,24,0.0,49359,26495356776720,53,23.0,436.1331481933594,0.9194999933242798,16,0.0,0.0,1603124990,,,,0,,3,-0.36,19.0,3842.78955078125,10.13821029663086,,,C,670321433539518
Raw,1682223695423,654931083000000,18,,-1365603982340396812,-0.28995323181152344,138.7154625263065,-2.1315831190974657,21.424670260804803,63,15,0.0,23567,15713344165935,46,24.6,-221.2792510986328,1.7763863801956177,16,0.0,0.0,1575420030,,,,0,,6,0.0,20.3,-1477.0675048828125,9.097878456115723,,,C,670321433539518
Raw,1682223695423,654931083000000,18,,-1365603982340396812,-0.28995323181152344,138.7154625263065,-2.1315831190974657,21.424670260804803,63,30,0.0,23567,15713339186583,10,38.4,-51.56842803955078,0.005899103824049234,16,0.0,0.0,1575420030,,,,0,,6,0.0,34.1,-1477.0675048828125,9.097878456115723,,,C,670321433539518
Fix,GPS,13.0076251800,80.2501404600,-86.87380981445312,0.0,11.126104,,1682223696000,0.080622576,,670322017256341,10.635929
Status,1682223696000,28,0,1,6,1575420030,20.10,187.0,30.0,1,1,1,16.5
Status,1682223696000,28,1,1,7,1575420030,32.40,127.0,50.0,1,1,1,28.800001
Status,1682223696000,28,2,1,13,1575420030,23.20,294.0,25.0,0,1,1,19.6
Status,1682223696000,28,3,1,14,1575420030,16.20,3.0,38.0,1,1,1,12.6
Status,1682223696000,28,4,1,17,1575420030,19.00,317.0,62.0,1,1,1,15.4
Status,1682223696000,28,5,1,19,1575420030,23.70,261.0,51.0,0,1,1,20.1
Status,1682223696000,28,6,1,30,1575420030,24.80,49.0,80.0,1,1,1,21.199999
Status,1682223696000,28,7,1,1,1575420030,0.00,52.0,28.0,0,1,1,0.0
Status,1682223696000,28,8,1,3,1575420030,0.00,109.0,2.0,0,1,1,0.0
Status,1682223696000,28,9,1,9,1575420030,0.00,167.0,10.0,0,1,1,0.0
Status,1682223696000,28,10,1,21,1575420030,0.00,39.0,5.0,0,1,1,0.0
Status,1682223696000,28,11,4,195,1575420030,20.20,56.0,27.0,0,1,0,16.6
Status,1682223696000,28,12,2,127,1575420030,33.40,0.0,0.0,0,0,0,29.800001
Status,1682223696000,28,13,2,128,1575420030,35.20,0.0,0.0,0,0,0,31.6
Status,1682223696000,28,14,3,14,1598062460,23.00,10.0,35.0,1,1,1,19.0
Status,1682223696000,28,15,3,24,1603124990,23.20,29.0,55.0,1,1,1,19.2
Status,1682223696000,28,16,3,17,1604249980,21.10,200.0,65.0,0,1,1,17.1
Status,1682223696000,28,17,3,18,1600312450,0.00,203.0,15.0,0,1,1,0.0
Status,1682223696000,28,18,3,13,1600875010,0.00,83.0,31.0,0,1,0,0.0
Status,1682223696000,28,19,3,4,1605374980,0.00,252.0,12.0,0,1,1,0.0
Status,1682223696000,28,20,6,15,1575420030,24.40,133.0,63.0,1,1,0,20.099998
Status,1682223696000,28,21,6,30,1575420030,38.60,29.0,38.0,1,1,0,34.3
Status,1682223696000,28,22,6,34,1575420030,23.60,53.0,35.0,0,1,0,19.3
Status,1682223696000,28,23,6,2,1575420030,0.00,80.0,13.0,0,1,0,0.0
Status,1682223696000,28,24,6,7,1575420030,0.00,240.0,37.0,0,1,0,0.0
Status,1682223696000,28,25,6,8,1575420030,0.00,182.0,21.0,0,1,0,0.0
Status,1682223696000,28,26,6,13,1575420030,0.00,194.0,25.0,0,1,0,0.0
Status,1682223696000,28,27,6,27,1575420030,0.00,326.0,26.0,0,1,0,0.0
Raw,1682223696423,654932083000000,18,,-1365603982340396815,-0.9854412078857422,142.5293885404244,-2.331645635046021,24.206132331519015,63,6,0.0,16399,15714348434730,80,20.1,-627.0462036132812,1.868499994277954,16,0.0,0.0,1575420030,,,,0,,1,0.04,16.5,0.0,0.0,,,C,670322441948424
Raw,1682223696423,654932083000000,18,,-1365603982340396815,-0.9854412078857422,142.5293885404244,-2.331645635046021,24.206132331519015,63,7,0.0,16399,15714353568341,17,32.4,306.3719787597656,0.039794374257326126,16,0.0,0.0,1575420030,,,,0,,1,0.04,28.799999999999997,0.0,0.0,,,C,670322441948424
Raw,1682223696423,654932083000000,18,,-1365603982340396815,-0.9854412078857422,142.5293885404244,-2.331645635046021,24.206132331519015,63,17,0.0,16399,15714354381508,92,19.0,207.2393341064453,1.9674999713897705,16,0.0,0.0,1575420030,,,,0,,1,0.04,15.4,0.0,0.0,,,C,670322441948424
Raw,1682223696423,654932083000000,18,,-1365603982340396815,-0.9854412078857422,142.5293885404244,-2.331645635046021,24.206132331519015,63,30,0.0,16399,15714355658211,40,24.8,-81.90239715576172,0.8510000109672546,16,0.0,0.0,1575420030,,,,0,,1,0.04,21.2,0.0,0.0,,,C,670322441948424
Raw,1682223696423,654932083000000,18,,-1365603982340396815,-0.9854412078857422,142.5293885404244,-2.331645635046021,24.206132331519015,63,14,0.0,49359,26496352559243,53,23.0,-395.8681335449219,0.9254999756813049,16,0.0,0.0,1598062460,,,,0,,3,-0.31,19.0,3842.78955078125,10.14339828491211,,,C,670322441948424
Raw,1682223696423,654932083000000,18,,-1365603982340396815,-0.9854412078857422,142.5293885404244,-2.331645635046021,24.206132331519015,63,24,0.0,49359,26496356775336,53,23.2,434.2818298339844,0.9044999480247498,16,0.0,0.0,1603124990,,,,0,,3,-0.31,19.2,3842.78955078125,10.14339828491211,,,C,670322441948424
Raw,1682223696423,654932083000000,18,,-1365603982340396815,-0.9854412078857422,142.5293885404244,-2.331645635046021,24.206132331519015,63,15,0.0,23567,15714344166620,46,24.4,-222.99476623535156,1.20550537109375,16,0.0,0.0,1575420030,,,,0,,6,0.03,20.099999999999998,-1477.0675048828125,9.103658676147461,,,C,670322441948424
Raw,1682223696423,654932083000000,18,,-1365603982340396815,-0.9854412078857422,142.5293885404244,-2.331645635046021,24.206132331519015,63,30,0.0,23567,15714339186752,10,38.6,-53.321224212646484,0.005899103824049234,16,0.0,0.0,1575420030,,,,0,,6,0.03,34.300000000000004,-1477.0675048828125,9.103658676147461,,,C,670322441948424
Fix,GPS,13.0076253000,80.2501405300,-86.85806274414062,0.0,11.449881,,1682223697000,0.080622576,,670323017411081,10.947943
Status,1682223697000,28,0,1,6,1575420030,20.10,187.0,30.0,1,1,1,16.5
Status,1682223697000,28,1,1,7,1575420030,32.40,127.0,50.0,1,1,1,28.800001
Status,1682223697000,28,2,1,13,1575420030,23.20,294.0,25.0,0,1,1,19.6
Status,1682223697000,28,3,1,14,1575420030,16.20,3.0,38.0,1,1,1,12.6
Status,1682223697000,28,4,1,17,1575420030,19.00,317.0,62.0,1,1,1,15.4
Status,1682223697000,28,5,1,19,1575420030,23.70,261.0,51.0,0,1,1,20.1
Status,1682223697000,28,6,1,30,1575420030,24.20,49.0,80.0,1,1,1,20.6
Status,1682223697000,28,7,1,1,1575420030,0.00,52.0,28.0,0,1,1,0.0
Status,1682223697000,28,8,1,3,1575420030,0.00,109.0,2.0,0,1,1,0.0
Status,1682223697000,28,9,1,9,1575420030,0.00,167.0,10.0,0,1,1,0.0
Status,1682223697000,28,10,1,21,1575420030,0.00,39.0,5.0,0,1,1,0.0
Status,1682223697000,28,11,4,195,1575420030,20.20,56.0,27.0,0,1,0,16.6
Status,1682223697000,28,12,2,127,1575420030,33.40,0.0,0.0,0,0,0,29.800001
Status,1682223697000,28,13,2,128,1575420030,35.20,0.0,0.0,0,0,0,31.6
Status,1682223697000,28,14,3,14,1598062460,23.20,10.0,35.0,1,1,1,19.2
Status,1682223697000,28,15,3,24,1603124990,23.40,29.0,55.0,1,1,1,19.4
Status,1682223697000,28,16,3,17,1604249980,21.10,200.0,65.0,0,1,1,17.1
Status,1682223697000,28,17,3,18,1600312450,0.00,203.0,15.0,0,1,1,0.0
Status,1682223697000,28,18,3,13,1600875010,0.00,83.0,31.0,0,1,0,0.0
Status,1682223697000,28,19,3,4,1605374980,0.00,252.0,12.0,0,1,1,0.0
Status,1682223697000,28,20,6,15,1575420030,24.80,133.0,63.0,1,1,0,20.5
Status,1682223697000,28,21,6,30,1575420030,38.20,29.0,38.0,1,1,0,33.9
Status,1682223697000,28,22,6,34,1575420030,23.60,53.0,35.0,0,1,0,19.3
Status,1682223697000,28,23,6,2,1575420030,0.00,80.0,13.0,0,1,0,0.0
Status,1682223697000,28,24,6,7,1575420030,0.00,240.0,37.0,0,1,0,0.0
Status,1682223697000,28,25,6,8,1575420030,0.00,182.0,21.0,0,1,0,0.0
Status,1682223697000,28,26,6,13,1575420030,0.00,194.0,25.0,0,1,0,0.0
Status,1682223697000,28,27,6,27,1575420030,0.00,326.0,26.0,0,1,0,0.0
Raw,1682223697423,654933083000000,18,,-1365603982340396818,-0.22061538696289062,146.9976850785315,-6.330729216991467,25.088971300939136,63,7,0.0,16399,15715353567359,17,32.4,306.1415710449219,0.039794374257326126,16,0.0,0.0,1575420030,,,,0,,1,0.09,28.799999999999997,0.0,0.0,,,C,670323446056185
Raw,1682223697423,654933083000000,18,,-1365603982340396818,-0.22061538696289062,146.9976850785315,-6.330729216991467,25.088971300939136,63,30,0.0,16399,15715355658472,46,24.2,-82.35910034179688,0.8510000109672546,16,0.0,0.0,1575420030,,,,0,,1,0.09,20.599999999999998,0.0,0.0,,,C,670323446056185
Raw,1682223697423,654933083000000,18,,-1365603982340396818,-0.22061538696289062,146.9976850785315,-6.330729216991467,25.088971300939136,63,14,0.0,49359,26497352560342,53,23.2,-396.515380859375,0.9254999756813049,16,0.0,0.0,1598062460,,,,0,,3,-0.29,19.2,3842.78955078125,10.14858341217041,,,C,670323446056185
Raw,1682223697423,654933083000000,18,,-1365603982340396818,-0.22061538696289062,146.9976850785315,-6.330729216991467,25.088971300939136,63,24,0.0,49359,26497356774029,53,23.4,434.4501037597656,0.9044999480247498,16,0.0,0.0,1603124990,,,,0,,3,-0.29,19.4,3842.78955078125,10.14858341217041,,,C,670323446056185
Raw,1682223697423,654933083000000,18,,-1365603982340396818,-0.22061538696289062,146.9976850785315,-6.330729216991467,25.088971300939136,63,15,0.0,23567,15715344167400,46,24.8,-223.22462463378906,0.6196242570877075,16,0.0,0.0,1575420030,,,,0,,6,0.06,20.5,-1477.0675048828125,9.109436988830566,,,C,670323446056185
Raw,1682223697423,654933083000000,18,,-1365603982340396818,-0.22061538696289062,146.9976850785315,-6.330729216991467,25.088971300939136,63,30,0.0,23567,15715339186937,11,38.2,-53.73137664794922,0.006698336917907,16,0.0,0.0,1575420030,,,,0,,6,0.06,33.900000000000006,-1477.0675048828125,9.109436988830566,,,C,670323446056185
Fix,GPS,13.0076253700,80.2501406000,-86.85757446289062,0.0,11.6609125,,1682223698000,0.080622576,,670324016704934,11.150568
Status,1682223698000,28,0,1,6,1575420030,20.00,187.0,30.0,1,1,1,16.4
Status,1682223698000,28,1,1,7,1575420030,32.30,127.0,50.0,1,1,1,28.699999
Status,1682223698000,28,2,1,13,1575420030,23.20,294.0,25.0,0,1,1,19.6
Status,1682223698000,28,3,1,14,1575420030,16.20,3.0,38.0,1,1,1,12.6
Status,1682223698000,28,4,1,17,1575420030,19.00,317.0,62.0,1,1,1,15.4
Status,1682223698000,28,5,1,19,1575420030,23.70,261.0,51.0,0,1,1,20.1
Status,1682223698000,28,6,1,30,1575420030,24.40,49.0,80.0,1,1,1,20.8
Status,1682223698000,28,7,1,1,1575420030,0.00,52.0,28.0,0,1,1,0.0
Status,1682223698000,28,8,1,3,1575420030,0.00,109.0,2.0,0,1,1,0.0
Status,1682223698000,28,9,1,9,1575420030,0.00,167.0,10.0,0,1,1,0.0
Status,1682223698000,28,10,1,21,1575420030,0.00,39.0,5.0,0,1,1,0.0
Status,1682223698000,28,11,4,195,1575420030,19.20,56.0,27.0,0,1,0,15.6
Status,1682223698000,28,12,2,127,1575420030,33.40,0.0,0.0,0,0,0,29.800001
Status,1682223698000,28,13,2,128,1575420030,35.20,0.0,0.0,0,0,0,31.6
Status,1682223698000,28,14,3,14,1598062460,23.20,10.0,35.0,1,1,1,19.2
Status,1682223698000,28,15,3,24,1603124990,22.90,29.0,55.0,1,1,1,18.9
Status,1682223698000,28,16,3,17,1604249980,21.10,200.0,65.0,0,1,1,17.1
Status,1682223698000,28,17,3,18,1600312450,0.00,203.0,15.0,0,1,1,0.0
Status,1682223698000,28,18,3,13,1600875010,0.00,83.0,31.0,0,1,0,0.0
Status,1682223698000,28,19,3,4,1605374980,0.00,252.0,12.0,0,1,1,0.0
Status,1682223698000,28,20,6,15,1575420030,25.70,133.0,63.0,1,1,0,21.400002
Status,1682223698000,28,21,6,30,1575420030,38.30,29.0,38.0,1,1,0,34.0
Status,1682223698000,28,22,6,34,1575420030,23.60,53.0,35.0,0,1,0,19.3
Status,1682223698000,28,23,6,2,1575420030,0.00,80.0,13.0,0,1,0,0.0
Status,1682223698000,28,24,6,7,1575420030,0.00,240.0,37.0,0,1,0,0.0
Status,1682223698000,28,25,6,8,1575420030,0.00,182.0,21.0,0,1,0,0.0
Status,1682223698000,28,26,6,13,1575420030,0.00,194.0,25.0,0,1,0,0.0
Status,1682223698000,28,27,6,27,1575420030,0.00,326.0,26.0,0,1,0,0.0
Raw,1682223698423,654934083000000,18,,-1365603982340396823,-0.28701019287109375,147.89104170631617,-8.022225937427418,19.848796735799066,63,6,0.0,16399,15716348439006,80,20.0,-627.6456298828125,1.868499994277954,16,0.0,0.0,1575420030,,,,0,,1,0.09,16.4,0.0,0.0,,,C,670324437424777
Raw,1682223698423,654934083000000,18,,-1365603982340396823,-0.28701019287109375,147.89104170631617,-8.022225937427418,19.848796735799066,63,7,0.0,16399,15716353566318,17,32.3,307.993896484375,0.039794374257326126,16,0.0,0.0,1575420030,,,,0,,1,0.09,28.699999999999996,0.0,0.0,,,C,670324437424777
Raw,1682223698423,654934083000000,18,,-1365603982340396823,-0.28701019287109375,147.89104170631617,-8.022225937427418,19.848796735799066,63,30,0.0,16399,15716355658831,46,24.4,-79.4190673828125,0.8510000109672546,16,0.0,0.0,1575420030,,,,0,,1,0.09,20.799999999999997,0.0,0.0,,,C,670324437424777
Raw,1682223698423,654934083000000,18,,-1365603982340396823,-0.28701019287109375,147.89104170631617,-8.022225937427418,19.848796735799066,63,24,0.0,49359,26498356772486,61,22.9,436.2547302246094,0.984499990940094,16,0.0,0.0,1603124990,,,,0,,3,-0.28,18.9,3842.78955078125,10.153766632080078,,,C,670324437424777
Raw,1682223698423,654934083000000,18,,-1365603982340396823,-0.28701019287109375,147.89104170631617,-8.022225937427418,19.848796735799066,63,15,0.0,23567,15716344168172,40,25.7,-221.3176727294922,0.6119412779808044,16,0.0,0.0,1575420030,,,,0,,6,0.06,21.4,-1477.0675048828125,9.115208625793457,,,C,670324437424777
Raw,1682223698423,654934083000000,18,,-1365603982340396823,-0.28701019287109375,147.89104170631617,-8.022225937427418,19.848796735799066,63,30,0.0,23567,15716339187106,10,38.3,-52.00135040283203,0.005899103824049234,16,0.0,0.0,1575420030,,,,0,,6,0.06,34.0,-1477.0675048828125,9.115208625793457,,,C,670324437424777
Fix,GPS,13.0076254600,80.2501406900,-86.83251953125,0.0,11.08468,,1682223699000,0.080622576,,670325017180559,10.601208
Status,1682223699000,28,0,1,6,1575420030,20.00,187.0,30.0,1,1,1,16.4
Status,1682223699000,28,1,1,7,1575420030,32.60,127.0,50.0,1,1,1,28.999998
Status,1682223699000,28,2,1,13,1575420030,23.20,294.0,25.0,0,1,1,19.6
Status,1682223699000,28,3,1,14,1575420030,16.20,3.0,38.0,1,1,1,12.6
Status,1682223699000,28,4,1,17,1575420030,19.00,317.0,62.0,1,1,1,15.4
Status,1682223699000,28,5,1,19,1575420030,23.70,261.0,51.0,0,1,1,20.1
Status,1682223699000,28,6,1,30,1575420030,24.70,49.0,80.0,1,1,1,21.1
Status,1682223699000,28,7,1,1,1575420030,0.00,52.0,28.0,0,1,1,0.0
Status,1682223699000,28,8,1,3,1575420030,0.00,109.0,2.0,0,1,1,0.0
Status,1682223699000,28,9,1,9,1575420030,0.00,167.0,10.0,0,1,1,0.0
Status,1682223699000,28,10,1,21,1575420030,0.00,39.0,5.0,0,1,1,0.0
Status,1682223699000,28,11,4,195,1575420030,19.20,56.0,27.0,0,1,0,15.6
Status,1682223699000,28,12,2,127,1575420030,33.40,0.0,0.0,0,0,0,29.800001
Status,1682223699000,28,13,2,128,1575420030,35.20,0.0,0.0,0,0,0,31.6
Status,1682223699000,28,14,3,14,1598062460,22.80,10.0,35.0,1,1,1,18.8
Status,1682223699000,28,15,3,24,1603124990,22.90,29.0,55.0,1,1,1,18.9
Status,1682223699000,28,16,3,17,1604249980,21.10,200.0,65.0,0,1,1,17.1
Status,1682223699000,28,17,3,18,1600312450,0.00,203.0,15.0,0,1,1,0.0
Status,1682223699000,28,18,3,13,1600875010,0.00,83.0,31.0,0,1,0,0.0
Status,1682223699000,28,19,3,4,1605374980,0.00,252.0,12.0,0,1,1,0.0
Status,1682223699000,28,20,6,15,1575420030,24.80,133.0,63.0,1,1,0,20.5
Status,1682223699000,28,21,6,30,1575420030,38.40,29.0,38.0,1,1,0,34.100002
Status,1682223699000,28,22,6,34,1575420030,23.60,53.0,35.0,0,1,0,19.3
Status,1682223699000,28,23,6,2,1575420030,0.00,80.0,13.0,0,1,0,0.0
Status,1682223699000,28,24,6,7,1575420030,0.00,240.0,37.0,0,1,0,0.0
Status,1682223699000,28,25,6,8,1575420030,0.00,182.0,21.0,0,1,0,0.0
Status,1682223699000,28,26,6,13,1575420030,0.00,194.0,25.0,0,1,0,0.0
Status,1682223699000,28,27,6,27,1575420030,0.00,326.0,26.0,0,1,0,0.0
Raw,1682223699423,654935083000000,18,,-1365603982340396815,-0.5682086944580078,140.68752352613956,-2.6824564241316464,19.682831598558867,63,7,0.0,16399,15717353565324,16,32.6,308.7855224609375,0.03840523213148117,16,0.0,0.0,1575420030,,,,0,,1,0.07,29.0,0.0,0.0,,,C,670325442844152
Raw,1682223699423,654935083000000,18,,-1365603982340396815,-0.5682086944580078,140.68752352613956,-2.6824564241316464,19.682831598558867,63,30,0.0,16399,15717355658952,40,24.7,-80.28489685058594,0.8510000109672546,16,0.0,0.0,1575420030,,,,0,,1,0.07,21.099999999999998,0.0,0.0,,,C,670325442844152
Raw,1682223699423,654935083000000,18,,-1365603982340396815,-0.5682086944580078,140.68752352613956,-2.6824564241316464,19.682831598558867,63,14,0.0,49359,26499352563262,61,22.8,-393.9734191894531,1.7044999599456787,16,0.0,0.0,1598062460,,,,0,,3,-0.3,18.8,3842.78955078125,10.158946990966797,,,C,670325442844152
Raw,1682223699423,654935083000000,18,,-1365603982340396815,-0.5682086944580078,140.68752352613956,-2.6824564241316464,19.682831598558867,63,15,0.0,23567,15717344168918,46,24.8,-220.65231323242188,0.04874328151345253,16,0.0,0.0,1575420030,,,,0,,6,0.04,20.5,-1477.0675048828125,9.120979309082031,,,C,670325442844152
Raw,1682223699423,654935083000000,18,,-1365603982340396815,-0.5682086944580078,140.68752352613956,-2.6824564241316464,19.682831598558867,63,30,0.0,23567,15717339187288,10,38.4,-51.334598541259766,0.005899103824049234,16,0.0,0.0,1575420030,,,,0,,6,0.04,34.1,-1477.0675048828125,9.120979309082031,,,C,670325442844152
Fix,GPS,13.0076254800,80.2501407600,-86.8594970703125,0.0,11.693911,,1682223700000,0.080622576,,670326017291288,11.184937
Status,1682223700000,28,0,1,6,1575420030,20.00,187.0,30.0,1,1,1,16.4
Status,1682223700000,28,1,1,7,1575420030,32.40,127.0,50.0,1,1,1,28.800001
Status,1682223700000,28,2,1,13,1575420030,23.20,294.0,25.0,0,1,1,19.6
Status,1682223700000,28,3,1,14,1575420030,16.20,3.0,38.0,1,1,1,12.6
Status,1682223700000,28,4,1,17,1575420030,19.00,317.0,62.0,1,1,1,15.4
Status,1682223700000,28,5,1,19,1575420030,23.70,261.0,51.0,0,1,1,20.1
Status,1682223700000,28,6,1,30,1575420030,24.00,49.0,80.0,1,1,1,20.4
Status,1682223700000,28,7,1,1,1575420030,0.00,52.0,28.0,0,1,1,0.0
Status,1682223700000,28,8,1,3,1575420030,0.00,109.0,2.0,0,1,1,0.0
Status,1682223700000,28,9,1,9,1575420030,0.00,167.0,10.0,0,1,1,0.0
Status,1682223700000,28,10,1,21,1575420030,0.00,39.0,5.0,0,1,1,0.0
Status,1682223700000,28,11,4,195,1575420030,19.20,56.0,27.0,0,1,0,15.6
Status,1682223700000,28,12,2,127,1575420030,33.40,0.0,0.0,0,0,0,29.800001
Status,1682223700000,28,13,2,128,1575420030,35.20,0.0,0.0,0,0,0,31.6
Status,1682223700000,28,14,3,14,1598062460,22.80,10.0,35.0,1,1,1,18.8
Status,1682223700000,28,15,3,24,1603124990,21.60,29.0,55.0,1,1,1,17.6
Status,1682223700000,28,16,3,17,1604249980,21.10,200.0,65.0,0,1,1,17.1
Status,1682223700000,28,17,3,18,1600312450,0.00,203.0,15.0,0,1,1,0.0
Status,1682223700000,28,18,3,13,1600875010,0.00,83.0,31.0,0,1,0,0.0
Status,1682223700000,28,19,3,4,1605374980,0.00,252.0,12.0,0,1,1,0.0
Status,1682223700000,28,20,6,15,1575420030,26.70,133.0,63.0,1,1,0,22.400002
Status,1682223700000,28,21,6,30,1575420030,38.10,29.0,38.0,1,1,0,33.8
Status,1682223700000,28,22,6,34,1575420030,23.60,53.0,35.0,0,1,0,19.3
Status,1682223700000,28,23,6,2,1575420030,0.00,80.0,13.0,0,1,0,0.0
Status,1682223700000,28,24,6,7,1575420030,0.00,240.0,37.0,0,1,0,0.0
Status,1682223700000,28,25,6,8,1575420030,0.00,182.0,21.0,0,1,0,0.0
Status,1682223700000,28,26,6,13,1575420030,0.00,194.0,25.0,0,1,0,0.0
Status,1682223700000,28,27,6,27,1575420030,0.00,326.0,26.0,0,1,0,0.0
Raw,1682223700423,654936083000000,18,,-1365603982340396830,-0.43956756591796875,145.3408331144601,-1.2356987942725328,20.385422223918873,63,7,0.0,16399,15718353564271,17,32.4,310.1800842285156,0.039794374257326126,16,0.0,0.0,1575420030,,,,0,,1,0.07,28.799999999999997,0.0,0.0,,,C,670326440934464
Raw,1682223700423,654936083000000,18,,-1365603982340396830,-0.43956756591796875,145.3408331144601,-1.2356987942725328,20.385422223918873,63,30,0.0,16399,15718355659428,46,24.0,-78.15361022949219,0.8510000109672546,16,0.0,0.0,1575420030,,,,0,,1,0.07,20.4,0.0,0.0,,,C,670326440934464
Raw,1682223700423,654936083000000,18,,-1365603982340396830,-0.43956756591796875,145.3408331144601,-1.2356987942725328,20.385422223918873,63,24,0.0,49359,26500356769605,70,21.6,437.20843505859375,1.8055000305175781,16,0.0,0.0,1603124990,,,,0,,3,-0.29,17.6,3842.78955078125,10.16412353515625,,,C,670326440934464
Raw,1682223700423,654936083000000,18,,-1365603982340396830,-0.43956756591796875,145.3408331144601,-1.2356987942725328,20.385422223918873,63,15,0.0,23567,15718344169639,35,26.7,-219.25714111328125,0.6054332256317139,16,0.0,0.0,1575420030,,,,0,,6,0.04,22.4,-1477.0675048828125,9.126745223999023,,,C,670326440934464
Raw,1682223700423,654936083000000,18,,-1365603982340396830,-0.43956756591796875,145.3408331144601,-1.2356987942725328,20.385422223918873,63,30,0.0,23567,15718339187453,11,38.1,-50.08552932739258,0.006698336917907,16,0.0,0.0,1575420030,,,,0,,6,0.04,33.800000000000004,-1477.0675048828125,9.126745223999023,,,C,670326440934464
Fix,GPS,13.0076255000,80.2501407400,-86.84490966796875,0.0,11.948812,,1682223701000,0.080622576,,670327017551965,11.429594
Status,1682223701000,28,0,1,6,1575420030,20.00,187.0,30.0,1,1,1,16.4
Status,1682223701000,28,1,1,7,1575420030,31.80,127.0,50.0,1,1,1,28.199999
Status,1682223701000,28,2,1,13,1575420030,23.20,294.0,25.0,0,1,1,19.6
Status,1682223701000,28,3,1,14,1575420030,16.20,3.0,38.0,1,1,1,12.6
Status,1682223701000,28,4,1,17,1575420030,19.00,317.0,62.0,1,1,1,15.4
Status,1682223701000,28,5,1,19,1575420030,23.70,261.0,51.0,0,1,1,20.1
Status,1682223701000,28,6,1,30,1575420030,24.40,49.0,80.0,1,1,1,20.8
Status,1682223701000,28,7,1,1,1575420030,0.00,52.0,28.0,0,1,1,0.0
Status,1682223701000,28,8,1,3,1575420030,0.00,109.0,2.0,0,1,1,0.0
Status,1682223701000,28,9,1,9,1575420030,0.00,167.0,10.0,0,1,1,0.0
Status,1682223701000,28,10,1,21,1575420030,0.00,39.0,5.0,0,1,1,0.0
Status,1682223701000,28,11,4,195,1575420030,19.20,56.0,27.0,0,1,0,15.6
Status,1682223701000,28,12,2,127,1575420030,33.40,0.0,0.0,0,0,0,29.800001
Status,1682223701000,28,13,2,128,1575420030,35.20,0.0,0.0,0,0,0,31.6
Status,1682223701000,28,14,3,14,1598062460,22.90,10.0,35.0,1,1,1,18.9
Status,1682223701000,28,15,3,24,1603124990,21.60,29.0,55.0,1,1,1,17.6
Status,1682223701000,28,16,3,17,1604249980,21.10,200.0,65.0,0,1,1,17.1
Status,1682223701000,28,17,3,18,1600312450,0.00,203.0,15.0,0,1,1,0.0
Status,1682223701000,28,18,3,13,1600875010,0.00,83.0,31.0,0,1,0,0.0
Status,1682223701000,28,19,3,4,1605374980,0.00,252.0,12.0,0,1,1,0.0
Status,1682223701000,28,20,6,15,1575420030,26.60,133.0,63.0,1,1,0,22.3
Status,1682223701000,28,21,6,30,1575420030,38.40,29.0,38.0,1,1,0,34.100002
Status,1682223701000,28,22,6,34,1575420030,23.60,53.0,35.0,0,1,0,19.3
Status,1682223701000,28,23,6,2,1575420030,0.00,80.0,13.0,0,1,0,0.0
Status,1682223701000,28,24,6,7,1575420030,0.00,240.0,37.0,0,1,0,0.0
Status,1682223701000,28,25,6,8,1575420030,0.00,182.0,21.0,0,1,0,0.0
Status,1682223701000,28,26,6,13,1575420030,0.00,194.0,25.0,0,1,0,0.0
Status,1682223701000,28,27,6,27,1575420030,0.00,326.0,26.0,0,1,0,0.0
Raw,1682223701423,654937083000000,18,,-1365603982340396831,-0.8998813629150391,151.76927263382822,2.2123983542328234,20.61566179184868,63,7,0.0,16399,15719353563235,17,31.8,310.53033447265625,0.039794374257326126,16,0.0,0.0,1575420030,,,,0,,1,0.09,28.2,0.0,0.0,,,C,670327433654620
Raw,1682223701423,654937083000000,18,,-1365603982340396831,-0.8998813629150391,151.76927263382822,2.2123983542328234,20.61566179184868,63,30,0.0,16399,15719355659603,46,24.4,-77.43049621582031,0.8510000109672546,16,0.0,0.0,1575420030,,,,0,,1,0.09,20.799999999999997,0.0,0.0,,,C,670327433654620
Raw,1682223701423,654937083000000,18,,-1365603982340396831,-0.8998813629150391,151.76927263382822,2.2123983542328234,20.61566179184868,63,14,0.0,49359,26501352565694,61,22.9,-391.7409973144531,1.7044999599456787,16,0.0,0.0,1598062460,,,,0,,3,-0.29,18.9,3842.78955078125,10.16929817199707,,,C,670327433654620
Raw,1682223701423,654937083000000,18,,-1365603982340396831,-0.8998813629150391,151.76927263382822,2.2123983542328234,20.61566179184868,63,15,0.0,23567,15719344170388,35,26.6,-218.93040466308594,1.7471952438354492,16,0.0,0.0,1575420030,,,,0,,6,0.06,22.3,-1477.0675048828125,9.132509231567383,,,C,670327433654620
Raw,1682223701423,654937083000000,18,,-1365603982340396831,-0.8998813629150391,151.76927263382822,2.2123983542328234,20.61566179184868,63,30,0.0,23567,15719339187621,10,38.4,-49.789546966552734,0.005899103824049234,16,0.0,0.0,1575420030,,,,0,,6,0.06,34.1,-1477.0675048828125,9.132509231567383,,,C,670327433654620
Fix,GPS,13.0076255100,80.2501407000,-86.84317016601562,0.0,11.117195,,1682223702000,0.080622576,,670328017318474,10.635176
Status,1682223702000,28,0,1,6,1575420030,20.00,187.0,30.0,1,1,1,16.4
Status,1682223702000,28,1,1,7,1575420030,32.30,127.0,50.0,1,1,1,28.699999
Status,1682223702000,28,2,1,13,1575420030,23.20,294.0,25.0,0,1,1,19.6
Status,1682223702000,28,3,1,14,1575420030,16.20,3.0,38.0,0,1,1,12.6
Status,1682223702000,28,4,1,17,1575420030,19.00,317.0,62.0,1,1,1,15.4
Status,1682223702000,28,5,1,19,1575420030,23.70,261.0,51.0,0,1,1,20.1
Status,1682223702000,28,6,1,30,1575420030,23.40,49.0,80.0,1,1,1,19.8
Status,1682223702000,28,7,1,1,1575420030,0.00,52.0,28.0,0,1,1,0.0
Status,1682223702000,28,8,1,3,1575420030,0.00,109.0,2.0,0,1,1,0.0
Status,1682223702000,28,9,1,9,1575420030,0.00,167.0,10.0,0,1,1,0.0
