# 
# Header Description:
# 
# Version: v3.0.6.1 Platform: 12 Manufacturer: motorola Model: moto g51 5G
# 
# Raw,utcTimeMillis,TimeNanos,LeapSecond,TimeUncertaintyNanos,FullBiasNanos,BiasNanos,BiasUncertaintyNanos,DriftNanosPerSecond,DriftUncertaintyNanosPerSecond,HardwareClockDiscontinuityCount,Svid,TimeOffsetNanos,State,ReceivedSvTimeNanos,ReceivedSvTimeUncertaintyNanos,Cn0DbHz,PseudorangeRateMetersPerSecond,PseudorangeRateUncertaintyMetersPerSecond,AccumulatedDeltaRangeState,AccumulatedDeltaRangeMeters,AccumulatedDeltaRangeUncertaintyMeters,CarrierFrequencyHz,CarrierCycles,CarrierPhase,CarrierPhaseUncertainty,MultipathIndicator,SnrInDb,ConstellationType,AgcDb,BasebandCn0DbHz,FullInterSignalBiasNanos,FullInterSignalBiasUncertaintyNanos,SatelliteInterSignalBiasNanos,SatelliteInterSignalBiasUncertaintyNanos,CodeType,ChipsetElapsedRealtimeNanos
# 
# UncalAccel,utcTimeMillis,elapsedRealtimeNanos,UncalAccelXMps2,UncalAccelYMps2,UncalAccelZMps2,BiasXMps2,BiasYMps2,BiasZMps2
# 
# Accel,utcTimeMillis,elapsedRealtimeNanos,AccelXMps2,AccelYMps2,AccelZMps2
# 
# UncalGyro,utcTimeMillis,elapsedRealtimeNanos,UncalGyroXRadPerSec,UncalGyroYRadPerSec,UncalGyroZRadPerSec,DriftXRadPerSec,DriftYRadPerSec,DriftZRadPerSec
# 
# Gyro,utcTimeMillis,elapsedRealtimeNanos,GyroXRadPerSec,GyroYRadPerSec,GyroZRadPerSec
# 
# UncalMag,utcTimeMillis,elapsedRealtimeNanos,UncalMagXMicroT,UncalMagYMicroT,UncalMagZMicroT,BiasXMicroT,BiasYMicroT,BiasZMicroT
# 
# Mag,utcTimeMillis,elapsedRealtimeNanos,MagXMicroT,MagYMicroT,MagZMicroT
# 
# OrientationDeg,utcTimeMillis,elapsedRealtimeNanos,yawDeg,rollDeg,pitchDeg
# 
# Fix,Provider,LatitudeDegrees,LongitudeDegrees,AltitudeMeters,SpeedMps,AccuracyMeters,BearingDegrees,UnixTimeMillis,SpeedAccuracyMps,BearingAccuracyDegrees,elapsedRealtimeNanos,VerticalAccuracyMeters
# 
# Nav,Svid,Type,Status,MessageId,Sub-messageId,Data(Bytes)
# 
# Status,UnixTimeMillis,SignalCount,SignalIndex,ConstellationType,Svid,CarrierFrequencyHz,Cn0DbHz,AzimuthDegrees,ElevationDegrees,UsedInFix,HasAlmanacData,HasEphemerisData,BasebandCn0DbHz
# 
Status,,31,0,1,6,1575420030,21.70,5.0,76.0,1,1,0,18.1
Status,,31,1,1,11,1575420030,17.40,221.0,53.0,0,1,0,13.799999
Status,,31,2,1,14,1575420030,21.50,90.0,41.0,0,1,0,17.9
Status,,31,3,1,17,1575420030,25.10,29.0,26.0,1,1,0,21.5
Status,,31,4,1,19,1575420030,22.60,359.0,38.0,1,1,0,19.0
Status,,31,5,1,3,1575420030,0.00,50.0,1.0,0,1,0,0.0
Status,,31,6,1,13,1575420030,0.00,225.0,16.0,0,1,0,0.0
Status,,31,7,1,15,1575420030,0.00,0.0,0.0,0,1,0,0.0
Status,,31,8,1,20,1575420030,0.00,186.0,20.0,0,1,0,0.0
Status,,31,9,1,24,1575420030,0.00,307.0,21.0,0,1,0,0.0
Status,,31,10,1,30,1575420030,0.00,161.0,24.0,0,1,0,0.0
Status,,31,11,4,194,1575420030,17.80,102.0,31.0,0,1,0,14.199999
Status,,31,12,4,195,1575420030,16.50,50.0,23.0,0,1,0,12.9
Status,,31,13,2,128,1575420030,32.40,0.0,0.0,0,0,0,28.800001
Status,,31,14,3,14,1598062460,24.80,6.0,65.0,1,1,0,20.8
Status,,31,15,3,24,1603124990,30.00,6.0,32.0,1,1,0,26.0
Status,,31,16,3,17,1604249980,17.20,291.0,52.0,1,1,0,13.200001
Status,,31,17,3,2,1599750020,0.00,0.0,0.0,0,1,0,0.0
Status,,31,18,3,18,1600312450,0.00,238.0,21.0,0,1,0,0.0
Status,,31,19,3,13,1600875010,0.00,134.0,43.0,0,1,0,0.0
Status,,31,20,3,12,1601437440,0.00,0.0,0.0,0,1,0,0.0
Status,,31,21,3,15,1602000000,0.00,336.0,16.0,0,1,0,0.0
Status,,31,22,6,1,1575420030,22.50,62.0,57.0,1,1,0,18.2
Status,,31,23,6,26,1575420030,19.70,30.0,26.0,1,1,0,15.400001
Status,,31,24,6,33,1575420030,18.70,354.0,74.0,0,1,0,14.400001
Status,,31,25,6,4,1575420030,0.00,223.0,10.0,0,1,0,0.0
Status,,31,26,6,10,1575420030,0.00,221.0,18.0,0,1,0,0.0
Status,,31,27,6,12,1575420030,0.00,226.0,43.0,0,1,0,0.0
Status,,31,28,6,19,1575420030,0.00,168.0,7.0,0,1,0,0.0
Status,,31,29,6,21,1575420030,0.00,113.0,24.0,0,1,0,0.0
Status,,31,30,6,31,1575420030,0.00,338.0,34.0,0,1,0,0.0
Raw,1682145862429,578865553000000,18,,-1365602214876317473,-0.6201763153076172,677.4931098334491,10.756180439889897,25.28331198491288,13,6,0.0,16399,542680362224855,61,21.7,186.40216064453125,2.5195000171661377,16,0.0,0.0,1575420030,,,,0,,1,0.27,18.099999999999998,0.0,0.0,,,C,592488524194169
Raw,1682145862429,578865553000000,18,,-1365602214876317473,-0.6201763153076172,677.4931098334491,10.756180439889897,25.28331198491288,13,17,0.0,16399,542680351666493,40,25.1,266.47772216796875,1.4930000305175781,16,0.0,0.0,1575420030,,,,0,,1,0.27,21.5,0.0,0.0,,,C,592488524194169
Raw,1682145862429,578865553000000,18,,-1365602214876317473,-0.6201763153076172,677.4931098334491,10.756180439889897,25.28331198491288,13,19,0.0,16399,542680356244272,53,22.6,186.55441284179688,3.9755001068115234,16,0.0,0.0,1575420030,,,,0,,1,0.27,19.0,0.0,0.0,,,C,592488524194169
Raw,1682145862429,578865553000000,18,,-1365602214876317473,-0.6201763153076172,677.4931098334491,10.756180439889897,25.28331198491288,13,14,0.0,49359,35062364056117,46,24.8,-345.3950500488281,0.8675000071525574,16,0.0,0.0,1598062460,,,,0,,3,0.01,20.8,3828.1181640625,31.079238891601562,,,C,592488524194169
Raw,1682145862429,578865553000000,18,,-1365602214876317473,-0.6201763153076172,677.4931098334491,10.756180439889897,25.28331198491288,13,24,0.0,49359,35062357752594,21,30.0,591.423095703125,5.671480655670166,16,0.0,0.0,1603124990,,,,0,,3,0.01,26.0,3828.1181640625,31.079238891601562,,,C,592488524194169
Raw,1682145862429,578865553000000,18,,-1365602214876317473,-0.6201763153076172,677.4931098334491,10.756180439889897,25.28331198491288,13,1,0.0,23567,542680349233632,61,22.5,-80.11363220214844,0.9980000257492065,16,0.0,0.0,1575420030,,,,0,,6,0.27,18.2,-1465.2987060546875,30.260591506958008,,,C,592488524194169
Raw,1682145862429,578865553000000,18,,-1365602214876317473,-0.6201763153076172,677.4931098334491,10.756180439889897,25.28331198491288,13,33,0.0,23567,542680350833879,106,18.7,170.12254333496094,4.2335004806518555,16,0.0,0.0,1575420030,,,,0,,6,0.27,14.399999999999999,-1465.2987060546875,30.260591506958008,,,C,592488524194169
Fix,GPS,13.0079204800,80.2499979700,-50.93603515625,0.0,50.72609,,1682145863000,0.96767765,,592489099589377,57.361565
Status,1682145863000,31,0,1,6,1575420030,31.40,5.0,76.0,1,1,0,27.8
Status,1682145863000,31,1,1,11,1575420030,17.30,221.0,53.0,0,1,0,13.699999
Status,1682145863000,31,2,1,17,1575420030,25.10,29.0,26.0,1,1,0,21.5
Status,1682145863000,31,3,1,19,1575420030,23.00,359.0,38.0,1,1,0,19.4
Status,1682145863000,31,4,1,3,1575420030,0.00,50.0,1.0,0,1,0,0.0
Status,1682145863000,31,5,1,13,1575420030,0.00,225.0,16.0,0,1,0,0.0
Status,1682145863000,31,6,1,14,1575420030,0.00,90.0,41.0,0,1,0,0.0
Status,1682145863000,31,7,1,15,1575420030,0.00,0.0,0.0,0,1,0,0.0
Status,1682145863000,31,8,1,20,1575420030,0.00,186.0,20.0,0,1,0,0.0
Status,1682145863000,31,9,1,24,1575420030,0.00,307.0,21.0,0,1,0,0.0
Status,1682145863000,31,10,1,30,1575420030,0.00,161.0,24.0,0,1,0,0.0
Status,1682145863000,31,11,4,194,1575420030,17.80,102.0,31.0,0,1,0,14.199999
Status,1682145863000,31,12,4,195,1575420030,16.50,50.0,23.0,0,1,0,12.9
Status,1682145863000,31,13,2,128,1575420030,33.90,0.0,0.0,0,0,0,30.300001
Status,1682145863000,31,14,3,14,1598062460,24.80,6.0,65.0,1,1,0,20.8
Status,1682145863000,31,15,3,24,1603124990,31.00,6.0,32.0,1,1,0,27.0
Status,1682145863000,31,16,3,17,1604249980,17.20,291.0,52.0,0,1,0,13.200001
Status,1682145863000,31,17,3,2,1599750020,0.00,0.0,0.0,0,1,0,0.0
Status,1682145863000,31,18,3,18,1600312450,0.00,238.0,21.0,0,1,0,0.0
Status,1682145863000,31,19,3,13,1600875010,0.00,134.0,43.0,0,1,0,0.0
Status,1682145863000,31,20,3,12,1601437440,0.00,0.0,0.0,0,1,0,0.0
Status,1682145863000,31,21,3,15,1602000000,0.00,336.0,16.0,0,1,0,0.0
Status,1682145863000,31,22,6,1,1575420030,26.00,62.0,57.0,1,1,0,21.7
Status,1682145863000,31,23,6,26,1575420030,19.70,30.0,26.0,0,1,0,15.400001
Status,1682145863000,31,24,6,33,1575420030,18.70,354.0,74.0,1,1,0,14.400001
Status,1682145863000,31,25,6,4,1575420030,0.00,223.0,10.0,0,1,0,0.0
Status,1682145863000,31,26,6,10,1575420030,0.00,221.0,18.0,0,1,0,0.0
Status,1682145863000,31,27,6,12,1575420030,0.00,226.0,43.0,0,1,0,0.0
Status,1682145863000,31,28,6,19,1575420030,0.00,168.0,7.0,0,1,0,0.0
Status,1682145863000,31,29,6,21,1575420030,0.00,113.0,24.0,0,1,0,0.0
Status,1682145863000,31,30,6,31,1575420030,0.00,338.0,34.0,0,1,0,0.0
Raw,1682145863429,578866553000000,18,,-1365602214876317464,-0.47086334228515625,659.3588041141629,7.515692207640121,23.34888861423097,13,6,0.0,16399,542681362224257,19,31.4,184.73638916015625,0.6370896697044373,16,0.0,0.0,1575420030,,,,0,,1,0.19,27.799999999999997,0.0,0.0,,,C,592489524222190
Raw,1682145863429,578866553000000,18,,-1365602214876317464,-0.47086334228515625,659.3588041141629,7.515692207640121,23.34888861423097,13,11,0.0,16399,542681358516956,122,17.3,-365.81103515625,7.218500137329102,16,0.0,0.0,1575420030,,,,0,,1,0.19,13.700000000000001,0.0,0.0,,,C,592489524222190
Raw,1682145863429,578866553000000,18,,-1365602214876317464,-0.47086334228515625,659.3588041141629,7.515692207640121,23.34888861423097,13,19,0.0,16399,542681356243838,53,23.0,185.2318572998047,0.9194999933242798,16,0.0,0.0,1575420030,,,,0,,1,0.19,19.4,0.0,0.0,,,C,592489524222190
Raw,1682145863429,578866553000000,18,,-1365602214876317464,-0.47086334228515625,659.3588041141629,7.515692207640121,23.34888861423097,13,24,0.0,49359,35063357750599,19,31.0,589.751220703125,1.1652946472167969,16,0.0,0.0,1603124990,,,,0,,3,-0.02,27.0,3828.17626953125,31.008668899536133,,,C,592489524222190
Raw,1682145863429,578866553000000,18,,-1365602214876317464,-0.47086334228515625,659.3588041141629,7.515692207640121,23.34888861423097,13,1,0.0,23567,542681349233947,40,26.0,-83.43350219726562,5.177489280700684,16,0.0,0.0,1575420030,,,,0,,6,0.2,21.7,-1465.6103515625,30.235776901245117,,,C,592489524222190
Fix,GPS,13.0077627000,80.2500636000,-74.2083740234375,0.0,46.460922,,1682145864000,0.8221922,,592490099563544,51.848995
Status,1682145864000,31,0,1,6,1575420030,32.20,5.0,76.0,1,1,0,28.6
Status,1682145864000,31,1,1,11,1575420030,21.50,221.0,53.0,1,1,0,17.9
Status,1682145864000,31,2,1,17,1575420030,21.40,29.0,26.0,1,1,0,17.8
Status,1682145864000,31,3,1,19,1575420030,21.30,359.0,38.0,1,1,0,17.699999
Status,1682145864000,31,4,1,3,1575420030,0.00,50.0,1.0,0,1,0,0.0
Status,1682145864000,31,5,1,13,1575420030,0.00,225.0,16.0,0,1,0,0.0
Status,1682145864000,31,6,1,14,1575420030,0.00,90.0,41.0,0,1,0,0.0
Status,1682145864000,31,7,1,15,1575420030,0.00,0.0,0.0,0,1,0,0.0
Status,1682145864000,31,8,1,20,1575420030,0.00,186.0,20.0,0,1,0,0.0
Status,1682145864000,31,9,1,24,1575420030,0.00,307.0,21.0,0,1,0,0.0
Status,1682145864000,31,10,1,30,1575420030,0.00,161.0,24.0,0,1,0,0.0
Status,1682145864000,31,11,4,194,1575420030,17.80,102.0,31.0,0,1,0,14.199999
Status,1682145864000,31,12,4,195,1575420030,16.50,50.0,23.0,0,1,0,12.9
Status,1682145864000,31,13,2,128,1575420030,32.60,0.0,0.0,0,0,0,28.999998
Status,1682145864000,31,14,3,14,1598062460,24.80,6.0,65.0,1,1,0,20.8
Status,1682145864000,31,15,3,24,1603124990,31.70,6.0,32.0,1,1,0,27.7
Status,1682145864000,31,16,3,17,1604249980,17.20,291.0,52.0,0,1,0,13.200001
Status,1682145864000,31,17,3,2,1599750020,0.00,0.0,0.0,0,1,0,0.0
Status,1682145864000,31,18,3,18,1600312450,0.00,238.0,21.0,0,1,0,0.0
Status,1682145864000,31,19,3,13,1600875010,0.00,134.0,43.0,0,1,0,0.0
Status,1682145864000,31,20,3,12,1601437440,0.00,0.0,0.0,0,1,0,0.0
Status,1682145864000,31,21,3,15,1602000000,0.00,336.0,16.0,0,1,0,0.0
Status,1682145864000,31,22,6,1,1575420030,25.50,62.0,57.0,1,1,0,21.2
Status,1682145864000,31,23,6,26,1575420030,19.70,30.0,26.0,0,1,0,15.400001
Status,1682145864000,31,24,6,33,1575420030,18.70,354.0,74.0,1,1,0,14.400001
Status,1682145864000,31,25,6,4,1575420030,0.00,223.0,10.0,0,1,0,0.0
Status,1682145864000,31,26,6,10,1575420030,0.00,221.0,18.0,0,1,0,0.0
Status,1682145864000,31,27,6,12,1575420030,0.00,226.0,43.0,0,1,0,0.0
Status,1682145864000,31,28,6,19,1575420030,0.00,168.0,7.0,0,1,0,0.0
Status,1682145864000,31,29,6,21,1575420030,0.00,113.0,24.0,0,1,0,0.0
Status,1682145864000,31,30,6,31,1575420030,0.00,338.0,34.0,0,1,0,0.0
Fix,GPS,13.0076485000,80.2501044100,-91.872802734375,0.0,37.837284,,1682145865000,0.9492102,,592491099653700,39.8778
Raw,1682145864429,578867553000000,18,,-1365602214876317542,-0.07611083984375,585.7376381754875,0.7850265889362644,19.206216256330876,13,6,0.0,16399,542682362223649,17,32.2,185.08236694335938,0.05629437416791916,16,0.0,0.0,1575420030,,,,0,,1,0.16,28.6,0.0,0.0,,,C,592490526473282
Raw,1682145864429,578867553000000,18,,-1365602214876317542,-0.07611083984375,585.7376381754875,0.7850265889362644,19.206216256330876,13,11,0.0,16399,542682358518167,70,21.5,-366.6483154296875,1.0764999389648438,16,0.0,0.0,1575420030,,,,0,,1,0.16,17.9,0.0,0.0,,,C,592490526473282
Raw,1682145864429,578867553000000,18,,-1365602214876317542,-0.07611083984375,585.7376381754875,0.7850265889362644,19.206216256330876,13,17,0.0,16399,542682351664853,70,21.4,264.98394775390625,1.7829999923706055,16,0.0,0.0,1575420030,,,,0,,1,0.16,17.799999999999997,0.0,0.0,,,C,592490526473282
Raw,1682145864429,578867553000000,18,,-1365602214876317542,-0.07611083984375,585.7376381754875,0.7850265889362644,19.206216256330876,13,19,0.0,16399,542682356243198,70,21.3,184.42311096191406,1.0794999599456787,16,0.0,0.0,1575420030,,,,0,,1,0.16,17.7,0.0,0.0,,,C,592490526473282
Raw,1682145864429,578867553000000,18,,-1365602214876317542,-0.07611083984375,585.7376381754875,0.7850265889362644,19.206216256330876,13,24,0.0,49359,35064357748633,19,31.7,590.0182495117188,0.04326438158750534,16,0.0,0.0,1603124990,,,,0,,3,-0.05,27.7,3829.168701171875,30.873044967651367,,,C,592490526473282
Raw,1682145864429,578867553000000,18,,-1365602214876317542,-0.07611083984375,585.7376381754875,0.7850265889362644,19.206216256330876,13,1,0.0,23567,542682349234207,40,25.5,-82.24186706542969,1.1813223361968994,16,0.0,0.0,1575420030,,,,0,,6,0.17,21.2,-1466.21337890625,30.1845760345459,,,C,592490526473282
Status,1682145865000,32,0,1,6,1575420030,32.90,5.0,76.0,1,1,0,29.300001
Status,1682145865000,32,1,1,11,1575420030,22.70,221.0,53.0,1,1,0,19.1
Status,1682145865000,32,2,1,17,1575420030,21.70,29.0,26.0,1,1,0,18.1
Status,1682145865000,32,3,1,19,1575420030,21.30,359.0,38.0,1,1,0,17.699999
Status,1682145865000,32,4,1,3,1575420030,0.00,50.0,1.0,0,1,0,0.0
Status,1682145865000,32,5,1,5,1575420030,0.00,0.0,0.0,0,1,0,0.0
Status,1682145865000,32,6,1,13,1575420030,0.00,225.0,15.0,0,1,0,0.0
Status,1682145865000,32,7,1,14,1575420030,0.00,90.0,41.0,0,1,0,0.0
Status,1682145865000,32,8,1,15,1575420030,0.00,0.0,0.0,0,1,0,0.0
Status,1682145865000,32,9,1,20,1575420030,0.00,186.0,20.0,0,1,0,0.0
Status,1682145865000,32,10,1,24,1575420030,0.00,307.0,21.0,0,1,0,0.0
Status,1682145865000,32,11,1,30,1575420030,0.00,161.0,24.0,0,1,0,0.0
Status,1682145865000,32,12,4,194,1575420030,17.80,102.0,31.0,0,1,0,14.199999
Status,1682145865000,32,13,4,195,1575420030,16.50,50.0,23.0,0,1,0,12.9
Status,1682145865000,32,14,2,128,1575420030,32.60,0.0,0.0,0,0,0,28.999998
Status,1682145865000,32,15,3,14,1598062460,24.80,6.0,65.0,1,1,0,20.8
Status,1682145865000,32,16,3,24,1603124990,31.80,6.0,32.0,1,1,0,27.8
Status,1682145865000,32,17,3,17,1604249980,17.20,291.0,52.0,0,1,0,13.200001
Status,1682145865000,32,18,3,2,1599750020,0.00,0.0,0.0,0,1,0,0.0
Status,1682145865000,32,19,3,18,1600312450,0.00,238.0,21.0,0,1,0,0.0
Status,1682145865000,32,20,3,13,1600875010,0.00,134.0,43.0,0,1,0,0.0
Status,1682145865000,32,21,3,12,1601437440,0.00,0.0,0.0,0,1,0,0.0
Status,1682145865000,32,22,3,15,1602000000,0.00,336.0,16.0,0,1,0,0.0
Status,1682145865000,32,23,6,1,1575420030,26.80,62.0,57.0,1,1,0,22.5
Status,1682145865000,32,24,6,26,1575420030,19.70,30.0,26.0,0,1,0,15.400001
Status,1682145865000,32,25,6,33,1575420030,18.70,354.0,74.0,1,1,0,14.400001
Status,1682145865000,32,26,6,4,1575420030,0.00,223.0,10.0,0,1,0,0.0
Status,1682145865000,32,27,6,10,1575420030,0.00,221.0,18.0,0,1,0,0.0
Status,1682145865000,32,28,6,12,1575420030,0.00,226.0,43.0,0,1,0,0.0
Status,1682145865000,32,29,6,19,1575420030,0.00,168.0,7.0,0,1,0,0.0
Status,1682145865000,32,30,6,21,1575420030,0.00,113.0,24.0,0,1,0,0.0
Status,1682145865000,32,31,6,31,1575420030,0.00,338.0,34.0,0,1,0,0.0
Raw,1682145865429,578868553000000,18,,-1365602214876317608,-0.3862781524658203,444.7121173143387,-0.0715003150104918,20.58657208477414,13,6,0.0,16399,542683362223034,16,32.9,184.78018188476562,0.054905232042074203,16,0.0,0.0,1575420030,,,,0,,1,0.16,29.299999999999997,0.0,0.0,,,C,592491526721095
Raw,1682145865429,578868553000000,18,,-1365602214876317608,-0.3862781524658203,444.7121173143387,-0.0715003150104918,20.58657208477414,13,11,0.0,16399,542683358519393,53,22.7,-367.3238830566406,0.9965000152587891,16,0.0,0.0,1575420030,,,,0,,1,0.16,19.099999999999998,0.0,0.0,,,C,592491526721095
Raw,1682145865429,578868553000000,18,,-1365602214876317608,-0.3862781524658203,444.7121173143387,-0.0715003150104918,20.58657208477414,13,17,0.0,16399,542683351663822,61,21.7,263.80413818359375,1.0869998931884766,16,0.0,0.0,1575420030,,,,0,,1,0.16,18.099999999999998,0.0,0.0,,,C,592491526721095
Raw,1682145865429,578868553000000,18,,-1365602214876317608,-0.3862781524658203,444.7121173143387,-0.0715003150104918,20.58657208477414,13,24,0.0,49359,35065357746641,19,31.8,589.6627197265625,0.04326438158750534,16,0.0,0.0,1603124990,,,,0,,3,-0.03,27.8,3831.390869140625,30.636823654174805,,,C,592491526721095
Raw,1682145865429,578868553000000,18,,-1365602214876317608,-0.3862781524658203,444.7121173143387,-0.0715003150104918,20.58657208477414,13,1,0.0,23567,542683349234452,35,26.8,-82.57211303710938,1.174814224243164,16,0.0,0.0,1575420030,,,,0,,6,0.17,22.5,-1467.000732421875,30.085693359375,,,C,592491526721095
Fix,GPS,13.0076016000,80.2501062400,-98.94912719726562,0.0,33.149265,,1682145866000,1.0454664,,592492098768959,32.44153
Status,1682145866000,32,0,1,6,1575420030,32.30,5.0,76.0,1,1,0,28.699999
Status,1682145866000,32,1,1,11,1575420030,22.70,221.0,53.0,1,1,0,19.1
Status,1682145866000,32,2,1,17,1575420030,21.70,29.0,26.0,1,1,0,18.1
Status,1682145866000,32,3,1,19,1575420030,19.90,359.0,38.0,1,1,0,16.3
Status,1682145866000,32,4,1,3,1575420030,0.00,50.0,1.0,0,1,0,0.0
Status,1682145866000,32,5,1,5,1575420030,0.00,0.0,0.0,0,1,0,0.0
Status,1682145866000,32,6,1,13,1575420030,0.00,225.0,15.0,0,1,0,0.0
Status,1682145866000,32,7,1,14,1575420030,0.00,90.0,41.0,0,1,0,0.0
Status,1682145866000,32,8,1,15,1575420030,0.00,0.0,0.0,0,1,0,0.0
Status,1682145866000,32,9,1,20,1575420030,0.00,186.0,20.0,0,1,0,0.0
Status,1682145866000,32,10,1,24,1575420030,0.00,307.0,21.0,0,1,0,0.0
Status,1682145866000,32,11,1,30,1575420030,0.00,161.0,24.0,0,1,0,0.0
Status,1682145866000,32,12,4,194,1575420030,17.80,102.0,31.0,0,1,0,14.199999
Status,1682145866000,32,13,4,195,1575420030,16.50,50.0,23.0,0,1,0,12.9
Status,1682145866000,32,14,2,128,1575420030,32.60,0.0,0.0,0,0,0,28.999998
Status,1682145866000,32,15,3,14,1598062460,24.80,6.0,65.0,1,1,0,20.8
Status,1682145866000,32,16,3,24,1603124990,31.00,6.0,32.0,1,1,0,27.0
Status,1682145866000,32,17,3,17,1604249980,17.20,291.0,52.0,0,1,0,13.200001
Status,1682145866000,32,18,3,2,1599750020,0.00,0.0,0.0,0,1,0,0.0
Status,1682145866000,32,19,3,18,1600312450,0.00,238.0,21.0,0,1,0,0.0
Status,1682145866000,32,20,3,13,1600875010,0.00,134.0,43.0,0,1,0,0.0
Status,1682145866000,32,21,3,12,1601437440,0.00,0.0,0.0,0,1,0,0.0
Status,1682145866000,32,22,3,15,1602000000,0.00,336.0,16.0,0,1,0,0.0
Status,1682145866000,32,23,6,1,1575420030,25.20,62.0,57.0,1,1,0,20.900002
Status,1682145866000,32,24,6,26,1575420030,16.50,30.0,26.0,0,1,0,12.2
Status,1682145866000,32,25,6,33,1575420030,18.70,354.0,74.0,1,1,0,14.400001
Status,1682145866000,32,26,6,4,1575420030,0.00,223.0,10.0,0,1,0,0.0
Status,1682145866000,32,27,6,10,1575420030,0.00,221.0,18.0,0,1,0,0.0
Status,1682145866000,32,28,6,12,1575420030,0.00,226.0,43.0,0,1,0,0.0
Status,1682145866000,32,29,6,19,1575420030,0.00,168.0,7.0,0,1,0,0.0
Status,1682145866000,32,30,6,21,1575420030,0.00,113.0,24.0,0,1,0,0.0
Status,1682145866000,32,31,6,31,1575420030,0.00,338.0,34.0,0,1,0,0.0
Raw,1682145866429,578869553000000,18,,-1365602214876317619,-0.7409629821777344,356.51022335514426,-1.3720120617532894,19.866210159881962,13,6,0.0,16399,542684362222429,17,32.3,184.12806701660156,0.05629437416791916,16,0.0,0.0,1575420030,,,,0,,1,0.16,28.699999999999996,0.0,0.0,,,C,592492524480469
Raw,1682145866429,578869553000000,18,,-1365602214876317619,-0.7409629821777344,356.51022335514426,-1.3720120617532894,19.866210159881962,13,19,0.0,16399,542684356241960,80,19.9,184.19476318359375,1.9704999923706055,16,0.0,0.0,1575420030,,,,0,,1,0.16,16.299999999999997,0.0,0.0,,,C,592492524480469
Raw,1682145866429,578869553000000,18,,-1365602214876317619,-0.7409629821777344,356.51022335514426,-1.3720120617532894,19.866210159881962,13,24,0.0,49359,35066357744647,19,31.0,588.9396362304688,0.6042795181274414,16,0.0,0.0,1603124990,,,,0,,3,-0.04,27.0,3833.3359375,30.42563819885254,,,C,592492524480469
Raw,1682145866429,578869553000000,18,,-1365602214876317619,-0.7409629821777344,356.51022335514426,-1.3720120617532894,19.866210159881962,13,1,0.0,23567,542684349234743,46,25.2,-82.59083557128906,1.7748863697052002,16,0.0,0.0,1575420030,,,,0,,6,0.17,20.9,-1467.78466796875,29.99272346496582,,,C,592492524480469
Raw,1682145866429,578869553000000,18,,-1365602214876317619,-0.7409629821777344,356.51022335514426,-1.3720120617532894,19.866210159881962,13,26,0.0,23567,542684342020456,139,16.5,492.43243408203125,7.4735002517700195,16,0.0,0.0,1575420030,,,,0,,6,0.17,12.2,-1467.78466796875,29.99272346496582,,,C,592492524480469
Fix,GPS,13.0076009000,80.2501062500,-98.44436645507812,0.0,34.15336,,1682145867000,1.191008,,592493099236147,32.547432
Status,1682145867000,32,0,1,6,1575420030,32.60,5.0,76.0,1,1,0,28.999998
Status,1682145867000,32,1,1,11,1575420030,22.70,221.0,53.0,1,1,0,19.1
Status,1682145867000,32,2,1,17,1575420030,21.70,29.0,26.0,1,1,0,18.1
Status,1682145867000,32,3,1,19,1575420030,19.90,359.0,38.0,1,1,0,16.3
Status,1682145867000,32,4,1,3,1575420030,0.00,50.0,1.0,0,1,0,0.0
Status,1682145867000,32,5,1,5,1575420030,0.00,0.0,0.0,0,1,0,0.0
Status,1682145867000,32,6,1,13,1575420030,0.00,225.0,15.0,0,1,0,0.0
Status,1682145867000,32,7,1,14,1575420030,0.00,90.0,41.0,0,1,0,0.0
Status,1682145867000,32,8,1,15,1575420030,0.00,0.0,0.0,0,1,0,0.0
Status,1682145867000,32,9,1,20,1575420030,0.00,186.0,20.0,0,1,0,0.0
Status,1682145867000,32,10,1,24,1575420030,0.00,307.0,21.0,0,1,0,0.0
Status,1682145867000,32,11,1,30,1575420030,0.00,161.0,24.0,0,1,0,0.0
Status,1682145867000,32,12,4,194,1575420030,17.80,102.0,31.0,0,1,0,14.199999
Status,1682145867000,32,13,4,195,1575420030,16.50,50.0,23.0,0,1,0,12.9
Status,1682145867000,32,14,2,128,1575420030,32.60,0.0,0.0,0,0,0,28.999998
Status,1682145867000,32,15,3,14,1598062460,24.80,6.0,65.0,1,1,0,20.8
Status,1682145867000,32,16,3,24,1603124990,31.20,6.0,32.0,1,1,0,27.2
Status,1682145867000,32,17,3,17,1604249980,17.20,291.0,52.0,0,1,0,13.200001
Status,1682145867000,32,18,3,2,1599750020,0.00,0.0,0.0,0,1,0,0.0
Status,1682145867000,32,19,3,18,1600312450,0.00,238.0,21.0,0,1,0,0.0
Status,1682145867000,32,20,3,13,1600875010,0.00,134.0,43.0,0,1,0,0.0
Status,1682145867000,32,21,3,12,1601437440,0.00,0.0,0.0,0,1,0,0.0
Status,1682145867000,32,22,3,15,1602000000,0.00,336.0,16.0,0,1,0,0.0
Status,1682145867000,32,23,6,1,1575420030,23.80,62.0,57.0,1,1,0,19.5
Status,1682145867000,32,24,6,26,1575420030,16.50,30.0,26.0,1,1,0,12.2
Status,1682145867000,32,25,6,33,1575420030,18.70,354.0,74.0,1,1,0,14.400001
Status,1682145867000,32,26,6,4,1575420030,0.00,223.0,10.0,0,1,0,0.0
Status,1682145867000,32,27,6,10,1575420030,0.00,221.0,18.0,0,1,0,0.0
Status,1682145867000,32,28,6,12,1575420030,0.00,226.0,43.0,0,1,0,0.0
Status,1682145867000,32,29,6,19,1575420030,0.00,168.0,7.0,0,1,0,0.0
Status,1682145867000,32,30,6,21,1575420030,0.00,113.0,24.0,0,1,0,0.0
Status,1682145867000,32,31,6,31,1575420030,0.00,338.0,34.0,0,1,0,0.0
Raw,1682145867429,578870553000000,18,,-1365602214876317620,-0.9330558776855469,371.8563821166754,-3.283858362668515,29.142316356142892,13,6,0.0,16399,542685362221818,16,32.6,180.61346435546875,1.7675483226776123,16,0.0,0.0,1575420030,,,,0,,1,0.16,29.0,0.0,0.0,,,C,592493529266511
Raw,1682145867429,578870553000000,18,,-1365602214876317620,-0.9330558776855469,371.8563821166754,-3.283858362668515,29.142316356142892,13,24,0.0,49359,35067357742761,19,31.2,585.1570434570312,2.848339796066284,16,0.0,0.0,1603124990,,,,0,,3,-0.02,27.2,3836.658203125,30.022541046142578,,,C,592493529266511
Raw,1682145867429,578870553000000,18,,-1365602214876317620,-0.9330558776855469,371.8563821166754,-3.283858362668515,29.142316356142892,13,1,0.0,23567,542685349235046,53,23.8,-87.15450286865234,0.9179999828338623,16,0.0,0.0,1575420030,,,,0,,6,0.2,19.5,-1469.1314697265625,29.76436424255371,,,C,592493529266511
Fix,GPS,13.0076001800,80.2501087600,-98.42108154296875,0.0,33.532196,,1682145868000,1.149826,,592494098770990,31.66549
Raw,1682145868429,578871553000000,18,,-1365602214876317644,-0.6557044982910156,362.89315903559327,-12.004582818513187,25.040123687949563,13,6,0.0,16399,542686362221215,17,32.4,182.45843505859375,0.05629437416791916,16,0.0,0.0,1575420030,,,,0,,1,0.21,28.799999999999997,0.0,0.0,,,C,592494533679791
Raw,1682145868429,578871553000000,18,,-1365602214876317644,-0.6557044982910156,362.89315903559327,-12.004582818513187,25.040123687949563,13,19,0.0,16399,542686356240728,70,20.8,180.51258850097656,1.880500078201294,16,0.0,0.0,1575420030,,,,0,,1,0.21,17.2,0.0,0.0,,,C,592494533679791
Raw,1682145868429,578871553000000,18,,-1365602214876317644,-0.6557044982910156,362.89315903559327,-12.004582818513187,25.040123687949563,13,24,0.0,49359,35068357740866,19,31.1,586.9978637695312,0.04326438158750534,16,0.0,0.0,1603124990,,,,0,,3,-0.02,27.1,3838.732177734375,29.693450927734375,,,C,592494533679791
Raw,1682145868429,578871553000000,18,,-1365602214876317644,-0.6557044982910156,362.89315903559327,-12.004582818513187,25.040123687949563,13,17,0.0,49359,35068362648836,181,14.2,112.00287628173828,10.059500694274902,16,0.0,0.0,1604249980,,,,0,,3,-0.02,10.2,3838.732177734375,29.693450927734375,,,C,592494533679791
Raw,1682145868429,578871553000000,18,,-1365602214876317644,-0.6557044982910156,362.89315903559327,-12.004582818513187,25.040123687949563,13,1,0.0,23567,542686349235278,35,26.3,-85.09915924072266,0.6039332151412964,16,0.0,0.0,1575420030,,,,0,,6,0.2,22.0,-1470.291748046875,29.58083152770996,,,C,592494533679791
Status,1682145868000,32,0,1,6,1575420030,32.40,5.0,76.0,1,1,0,28.800001
Status,1682145868000,32,1,1,11,1575420030,22.70,221.0,53.0,1,1,0,19.1
Status,1682145868000,32,2,1,17,1575420030,21.70,29.0,26.0,1,1,0,18.1
Status,1682145868000,32,3,1,19,1575420030,20.80,359.0,38.0,1,1,0,17.199999
Status,1682145868000,32,4,1,3,1575420030,0.00,50.0,1.0,0,1,0,0.0
Status,1682145868000,32,5,1,5,1575420030,0.00,0.0,0.0,0,1,0,0.0
Status,1682145868000,32,6,1,13,1575420030,0.00,225.0,15.0,0,1,0,0.0
Status,1682145868000,32,7,1,14,1575420030,0.00,90.0,41.0,0,1,0,0.0
Status,1682145868000,32,8,1,15,1575420030,0.00,0.0,0.0,0,1,0,0.0
Status,1682145868000,32,9,1,20,1575420030,0.00,186.0,20.0,0,1,0,0.0
Status,1682145868000,32,10,1,24,1575420030,0.00,307.0,21.0,0,1,0,0.0
Status,1682145868000,32,11,1,30,1575420030,0.00,161.0,24.0,0,1,0,0.0
Status,1682145868000,32,12,4,194,1575420030,17.80,102.0,31.0,0,1,0,14.199999
Status,1682145868000,32,13,4,195,1575420030,16.50,50.0,23.0,0,1,0,12.9
Status,1682145868000,32,14,2,128,1575420030,32.40,0.0,0.0,0,0,0,28.800001
Status,1682145868000,32,15,3,14,1598062460,24.80,6.0,65.0,1,1,0,20.8
Status,1682145868000,32,16,3,24,1603124990,31.10,6.0,32.0,1,1,0,27.1
Status,1682145868000,32,17,3,17,1604249980,14.20,291.0,52.0,0,1,0,10.2
Status,1682145868000,32,18,3,2,1599750020,0.00,0.0,0.0,0,1,0,0.0
Status,1682145868000,32,19,3,18,1600312450,0.00,238.0,21.0,0,1,0,0.0
Status,1682145868000,32,20,3,13,1600875010,0.00,134.0,43.0,0,1,0,0.0
Status,1682145868000,32,21,3,12,1601437440,0.00,0.0,0.0,0,1,0,0.0
Status,1682145868000,32,22,3,15,1602000000,0.00,336.0,16.0,0,1,0,0.0
Status,1682145868000,32,23,6,1,1575420030,26.30,62.0,57.0,1,1,0,22.0
Status,1682145868000,32,24,6,26,1575420030,16.50,30.0,26.0,1,1,0,12.2
Status,1682145868000,32,25,6,33,1575420030,18.70,354.0,74.0,1,1,0,14.400001
Status,1682145868000,32,26,6,4,1575420030,0.00,223.0,10.0,0,1,0,0.0
Status,1682145868000,32,27,6,10,1575420030,0.00,221.0,18.0,0,1,0,0.0
Status,1682145868000,32,28,6,12,1575420030,0.00,226.0,43.0,0,1,0,0.0
Status,1682145868000,32,29,6,19,1575420030,0.00,168.0,7.0,0,1,0,0.0
Status,1682145868000,32,30,6,21,1575420030,0.00,113.0,24.0,0,1,0,0.0
Status,1682145868000,32,31,6,31,1575420030,0.00,338.0,34.0,0,1,0,0.0
Fix,GPS,13.0076014600,80.2501071700,-98.15585327148438,0.0,32.416634,,1682145869000,1.1401755,,592495099104688,30.45398
Status,1682145869000,32,0,1,6,1575420030,32.60,5.0,76.0,1,1,0,28.999998
Status,1682145869000,32,1,1,11,1575420030,18.30,221.0,53.0,1,1,0,14.699999
Status,1682145869000,32,2,1,17,1575420030,19.30,29.0,26.0,1,1,0,15.699999
Status,1682145869000,32,3,1,19,1575420030,22.30,359.0,38.0,1,1,0,18.699999
Status,1682145869000,32,4,1,3,1575420030,0.00,50.0,1.0,0,1,0,0.0
Status,1682145869000,32,5,1,5,1575420030,0.00,0.0,0.0,0,1,0,0.0
Status,1682145869000,32,6,1,13,1575420030,0.00,225.0,15.0,0,1,0,0.0
Status,1682145869000,32,7,1,14,1575420030,0.00,90.0,41.0,0,1,0,0.0
Status,1682145869000,32,8,1,15,1575420030,0.00,0.0,0.0,0,1,0,0.0
Status,1682145869000,32,9,1,20,1575420030,0.00,186.0,20.0,0,1,0,0.0
Status,1682145869000,32,10,1,24,1575420030,0.00,307.0,21.0,0,1,0,0.0
Status,1682145869000,32,11,1,30,1575420030,0.00,161.0,24.0,0,1,0,0.0
Status,1682145869000,32,12,4,194,1575420030,17.80,102.0,31.0,0,1,0,14.199999
Status,1682145869000,32,13,4,195,1575420030,16.50,50.0,23.0,0,1,0,12.9
Status,1682145869000,32,14,2,128,1575420030,33.10,0.0,0.0,0,0,0,29.499998
Status,1682145869000,32,15,3,14,1598062460,24.80,6.0,65.0,0,1,0,20.8
Status,1682145869000,32,16,3,24,1603124990,31.00,6.0,32.0,1,1,0,27.0
Status,1682145869000,32,17,3,17,1604249980,14.20,291.0,52.0,1,1,0,10.2
Status,1682145869000,32,18,3,2,1599750020,0.00,0.0,0.0,0,1,0,0.0
Status,1682145869000,32,19,3,18,1600312450,0.00,238.0,21.0,0,1,0,0.0
Status,1682145869000,32,20,3,13,1600875010,0.00,134.0,43.0,0,1,0,0.0
Status,1682145869000,32,21,3,12,1601437440,0.00,0.0,0.0,0,1,0,0.0
Status,1682145869000,32,22,3,15,1602000000,0.00,336.0,16.0,0,1,0,0.0
Status,1682145869000,32,23,6,1,1575420030,26.40,62.0,57.0,1,1,0,22.099998
Status,1682145869000,32,24,6,10,1575420030,14.80,221.0,18.0,0,1,0,10.5
Status,1682145869000,32,25,6,26,1575420030,16.50,30.0,26.0,1,1,0,12.2
Status,1682145869000,32,26,6,33,1575420030,18.70,355.0,74.0,0,1,0,14.400001
Status,1682145869000,32,27,6,4,1575420030,0.00,223.0,10.0,0,1,0,0.0
Status,1682145869000,32,28,6,12,1575420030,0.00,226.0,43.0,0,1,0,0.0
Status,1682145869000,32,29,6,19,1575420030,0.00,168.0,7.0,0,1,0,0.0
Status,1682145869000,32,30,6,21,1575420030,0.00,113.0,24.0,0,1,0,0.0
Status,1682145869000,32,31,6,31,1575420030,0.00,338.0,34.0,0,1,0,0.0
Raw,1682145869429,578872553000000,18,,-1365602214876317660,-0.15291213989257812,351.1509275995195,-10.270937913498074,23.391168815086974,13,6,0.0,16399,542687362220600,16,32.6,183.11386108398438,0.054905232042074203,16,0.0,0.0,1575420030,,,,0,,1,0.21,29.0,0.0,0.0,,,C,592495528900000
Raw,1682145869429,578872553000000,18,,-1365602214876317660,-0.15291213989257812,351.1509275995195,-10.270937913498074,23.391168815086974,13,11,0.0,16399,542687358524382,106,18.3,-369.83575439453125,3.573500156402588,16,0.0,0.0,1575420030,,,,0,,1,0.21,14.700000000000001,0.0,0.0,,,C,592495528900000
Raw,1682145869429,578872553000000,18,,-1365602214876317660,-0.15291213989257812,351.1509275995195,-10.270937913498074,23.391168815086974,13,17,0.0,16399,542687351660471,92,19.3,262.0439147949219,3.4630000591278076,16,0.0,0.0,1575420030,,,,0,,1,0.21,15.700000000000001,0.0,0.0,,,C,592495528900000
Raw,1682145869429,578872553000000,18,,-1365602214876317660,-0.15291213989257812,351.1509275995195,-10.270937913498074,23.391168815086974,13,19,0.0,16399,542687356240151,61,22.3,182.14910888671875,0.999500036239624,16,0.0,0.0,1575420030,,,,0,,1,0.21,18.7,0.0,0.0,,,C,592495528900000
Raw,1682145869429,578872553000000,18,,-1365602214876317660,-0.15291213989257812,351.1509275995195,-10.270937913498074,23.391168815086974,13,24,0.0,49359,35069357738816,19,31.0,587.580322265625,0.04326438158750534,16,0.0,0.0,1603124990,,,,0,,3,-0.02,27.0,3840.261962890625,29.36678695678711,,,C,592495528900000
Raw,1682145869429,578872553000000,18,,-1365602214876317660,-0.15291213989257812,351.1509275995195,-10.270937913498074,23.391168815086974,13,1,0.0,23567,542687349235574,35,26.4,-84.51084899902344,0.0330522283911705,16,0.0,0.0,1575420030,,,,0,,6,0.2,22.099999999999998,-1471.5631103515625,29.424144744873047,,,C,592495528900000
Raw,1682145869429,578872553000000,18,,-1365602214876317660,-0.15291213989257812,351.1509275995195,-10.270937913498074,23.391168815086974,13,10,0.0,23567,542687339037305,181,14.8,-454.4403381347656,9.995000839233398,16,0.0,0.0,1575420030,,,,0,,6,0.2,10.5,-1471.5631103515625,29.424144744873047,,,C,592495528900000
Fix,GPS,13.0076022400,80.2500987400,-97.481689453125,0.0,28.814024,,1682145870000,0.6198387,,592496099576145,26.10732
Status,1682145870000,32,0,1,6,1575420030,32.60,5.0,76.0,1,1,0,28.999998
Status,1682145870000,32,1,1,11,1575420030,18.30,221.0,53.0,1,1,0,14.699999
Status,1682145870000,32,2,1,17,1575420030,22.40,29.0,26.0,1,1,0,18.8
Status,1682145870000,32,3,1,19,1575420030,21.70,359.0,38.0,1,1,0,18.1
Status,1682145870000,32,4,1,3,1575420030,0.00,50.0,1.0,0,1,0,0.0
Status,1682145870000,32,5,1,5,1575420030,0.00,0.0,0.0,0,1,0,0.0
Status,1682145870000,32,6,1,13,1575420030,0.00,225.0,15.0,0,1,0,0.0
Status,1682145870000,32,7,1,14,1575420030,0.00,90.0,41.0,0,1,0,0.0
Status,1682145870000,32,8,1,15,1575420030,0.00,0.0,0.0,0,1,0,0.0
Status,1682145870000,32,9,1,20,1575420030,0.00,186.0,20.0,0,1,0,0.0
Status,1682145870000,32,10,1,24,1575420030,0.00,307.0,21.0,0,1,0,0.0
Status,1682145870000,32,11,1,30,1575420030,0.00,161.0,24.0,0,1,0,0.0
Status,1682145870000,32,12,4,194,1575420030,17.80,102.0,31.0,0,1,0,14.199999
Status,1682145870000,32,13,4,195,1575420030,16.50,50.0,23.0,0,1,0,12.9
Status,1682145870000,32,14,2,128,1575420030,32.20,0.0,0.0,0,0,0,28.6
Status,1682145870000,32,15,3,14,1598062460,24.80,6.0,65.0,0,1,0,20.8
Status,1682145870000,32,16,3,24,1603124990,30.10,6.0,32.0,1,1,0,26.1
Status,1682145870000,32,17,3,17,1604249980,14.20,291.0,52.0,1,1,0,10.2
Status,1682145870000,32,18,3,2,1599750020,0.00,0.0,0.0,0,1,0,0.0
Status,1682145870000,32,19,3,18,1600312450,0.00,238.0,21.0,0,1,0,0.0
Status,1682145870000,32,20,3,13,1600875010,0.00,134.0,43.0,0,1,0,0.0
Status,1682145870000,32,21,3,12,1601437440,0.00,0.0,0.0,0,1,0,0.0
Status,1682145870000,32,22,3,15,1602000000,0.00,336.0,16.0,0,1,0,0.0
Status,1682145870000,32,23,6,1,1575420030,25.20,62.0,57.0,1,1,0,20.900002
Status,1682145870000,32,24,6,10,1575420030,14.80,221.0,18.0,1,1,0,10.5
Status,1682145870000,32,25,6,26,1575420030,16.50,30.0,26.0,1,1,0,12.2
Status,1682145870000,32,26,6,33,1575420030,18.70,355.0,74.0,0,1,0,14.400001
Status,1682145870000,32,27,6,4,1575420030,0.00,223.0,10.0,0,1,0,0.0
Status,1682145870000,32,28,6,12,1575420030,0.00,226.0,43.0,0,1,0,0.0
Status,1682145870000,32,29,6,19,1575420030,0.00,168.0,7.0,0,1,0,0.0
Status,1682145870000,32,30,6,21,1575420030,0.00,113.0,24.0,0,1,0,0.0
Status,1682145870000,32,31,6,31,1575420030,0.00,338.0,34.0,0,1,0,0.0
Raw,1682145870429,578873553000000,18,,-1365602214876317678,-0.5707473754882812,306.4848715439439,-8.289808615570804,27.606629858254298,13,6,0.0,16399,542688362219976,16,32.6,182.1831512451172,0.054905232042074203,16,0.0,0.0,1575420030,,,,0,,1,0.19,29.0,0.0,0.0,,,C,592496529765989
Raw,1682145870429,578873553000000,18,,-1365602214876317678,-0.5707473754882812,306.4848715439439,-8.289808615570804,27.606629858254298,13,17,0.0,16399,542688351659547,61,22.4,261.0258483886719,1.0069999694824219,16,0.0,0.0,1575420030,,,,0,,1,0.19,18.799999999999997,0.0,0.0,,,C,592496529765989
Raw,1682145870429,578873553000000,18,,-1365602214876317678,-0.5707473754882812,306.4848715439439,-8.289808615570804,27.606629858254298,13,19,0.0,16399,542688356239464,61,21.7,181.79705810546875,1.0794999599456787,16,0.0,0.0,1575420030,,,,0,,1,0.19,18.099999999999998,0.0,0.0,,,C,592496529765989
Raw,1682145870429,578873553000000,18,,-1365602214876317678,-0.5707473754882812,306.4848715439439,-8.289808615570804,27.606629858254298,13,24,0.0,49359,35070357736959,21,30.1,586.5919799804688,0.6223441958427429,16,0.0,0.0,1603124990,,,,0,,3,-0.03,26.1,3844.880859375,28.788440704345703,,,C,592496529765989
Raw,1682145870429,578873553000000,18,,-1365602214876317678,-0.5707473754882812,306.4848715439439,-8.289808615570804,27.606629858254298,13,1,0.0,23567,542688349235882,46,25.2,-85.485107421875,2.9166481494903564,16,0.0,0.0,1575420030,,,,0,,6,0.2,20.9,-1472.6231689453125,29.127742767333984,,,C,592496529765989
Fix,GPS,13.0076028400,80.2500985700,-97.37322998046875,0.0,26.997007,,1682145871000,1.1884865,,592497099103541,24.024078
Status,1682145871000,30,0,1,6,1575420030,32.30,5.0,76.0,1,1,0,28.699999
Status,1682145871000,30,1,1,11,1575420030,19.90,221.0,53.0,1,1,0,16.3
Status,1682145871000,30,2,1,17,1575420030,22.40,29.0,26.0,1,1,0,18.8
Status,1682145871000,30,3,1,19,1575420030,23.20,359.0,38.0,1,1,0,19.6
Status,1682145871000,30,4,1,3,1575420030,0.00,50.0,1.0,0,1,0,0.0
Status,1682145871000,30,5,1,5,1575420030,0.00,0.0,0.0,0,1,0,0.0
Status,1682145871000,30,6,1,13,1575420030,0.00,225.0,15.0,0,1,0,0.0
Status,1682145871000,30,7,1,14,1575420030,0.00,90.0,41.0,0,1,0,0.0
Status,1682145871000,30,8,1,15,1575420030,0.00,0.0,0.0,0,1,0,0.0
Status,1682145871000,30,9,1,20,1575420030,0.00,186.0,20.0,0,1,0,0.0
Status,1682145871000,30,10,1,24,1575420030,0.00,307.0,21.0,0,1,0,0.0
Status,1682145871000,30,11,1,30,1575420030,0.00,161.0,24.0,0,1,0,0.0
Status,1682145871000,30,12,2,128,1575420030,32.20,0.0,0.0,0,0,0,28.6
Status,1682145871000,30,13,3,14,1598062460,24.80,6.0,65.0,0,1,0,20.8
Status,1682145871000,30,14,3,24,1603124990,30.60,6.0,32.0,1,1,0,26.6
Status,1682145871000,30,15,3,17,1604249980,14.20,291.0,52.0,1,1,0,10.2
Status,1682145871000,30,16,3,2,1599750020,0.00,0.0,0.0,0,1,0,0.0
Status,1682145871000,30,17,3,18,1600312450,0.00,238.0,21.0,0,1,0,0.0
Status,1682145871000,30,18,3,13,1600875010,0.00,134.0,43.0,0,1,0,0.0
Status,1682145871000,30,19,3,12,1601437440,0.00,0.0,0.0,0,1,0,0.0
Status,1682145871000,30,20,3,15,1602000000,0.00,336.0,16.0,0,1,0,0.0
Status,1682145871000,30,21,6,1,1575420030,25.80,62.0,57.0,1,1,0,21.5
Status,1682145871000,30,22,6,10,1575420030,14.80,221.0,18.0,1,1,0,10.5
Status,1682145871000,30,23,6,26,1575420030,19.50,30.0,26.0,1,1,0,15.2
Status,1682145871000,30,24,6,33,1575420030,18.70,355.0,74.0,0,1,0,14.400001
Status,1682145871000,30,25,6,4,1575420030,0.00,223.0,10.0,0,1,0,0.0
Status,1682145871000,30,26,6,12,1575420030,0.00,226.0,43.0,0,1,0,0.0
Status,1682145871000,30,27,6,19,1575420030,0.00,168.0,7.0,0,1,0,0.0
Status,1682145871000,30,28,6,21,1575420030,0.00,113.0,24.0,0,1,0,0.0
Status,1682145871000,30,29,6,31,1575420030,0.00,338.0,34.0,0,1,0,0.0
Raw,1682145871429,578874553000000,18,,-1365602214876317698,-0.4488964080810547,286.50028980337083,-10.144962574238525,27.131641656402337,13,6,0.0,16399,542689362219377,17,32.3,181.58216857910156,0.05629437416791916,16,0.0,0.0,1575420030,,,,0,,1,0.21,28.699999999999996,0.0,0.0,,,C,592497528841562
Raw,1682145871429,578874553000000,18,,-1365602214876317698,-0.4488964080810547,286.50028980337083,-10.144962574238525,27.131641656402337,13,11,0.0,16399,542689358526858,80,19.9,-369.67401123046875,1.9735000133514404,16,0.0,0.0,1575420030,,,,0,,1,0.21,16.299999999999997,0.0,0.0,,,C,592497528841562
Raw,1682145871429,578874553000000,18,,-1365602214876317698,-0.4488964080810547,286.50028980337083,-10.144962574238525,27.131641656402337,13,19,0.0,16399,542689356238982,53,23.2,180.16053771972656,0.9194999933242798,16,0.0,0.0,1575420030,,,,0,,1,0.21,19.599999999999998,0.0,0.0,,,C,592497528841562
Raw,1682145871429,578874553000000,18,,-1365602214876317698,-0.4488964080810547,286.50028980337083,-10.144962574238525,27.131641656402337,13,24,0.0,49359,35071357734925,21,30.6,585.8506469726562,0.06132906675338745,16,0.0,0.0,1603124990,,,,0,,3,-0.02,26.6,3845.932861328125,28.14830207824707,,,C,592497528841562
Raw,1682145871429,578874553000000,18,,-1365602214876317698,-0.4488964080810547,286.50028980337083,-10.144962574238525,27.131641656402337,13,1,0.0,23567,542689349236146,40,25.8,-86.21011352539062,0.610441267490387,16,0.0,0.0,1575420030,,,,0,,6,0.23,21.5,-1473.9970703125,28.74920654296875,,,C,592497528841562
Raw,1682145871429,578874553000000,18,,-1365602214876317698,-0.4488964080810547,286.50028980337083,-10.144962574238525,27.131641656402337,13,26,0.0,23567,542689342012381,92,19.5,487.9795837402344,4.2235002517700195,16,0.0,0.0,1575420030,,,,0,,6,0.23,15.2,-1473.9970703125,28.74920654296875,,,C,592497528841562
Fix,GPS,13.0075717600,80.2500886900,-102.50079345703125,0.0,26.24927,,1682145872000,1.2078494,,592498099682967,22.626625
Raw,1682145872429,578875553000000,18,,-1365602214876317736,-0.23824119567871094,265.86075546219945,-12.565907279584332,23.236910181431917,13,6,0.0,16399,542690362218771,17,32.2,183.25247192382812,0.05629437416791916,16,0.0,0.0,1575420030,,,,0,,1,0.21,28.6,0.0,0.0,,,C,592498529124843
Raw,1682145872429,578875553000000,18,,-1365602214876317736,-0.23824119567871094,265.86075546219945,-12.565907279584332,23.236910181431917,13,17,0.0,16399,542690351657692,92,19.3,261.06390380859375,1.9630000591278076,16,0.0,0.0,1575420030,,,,0,,1,0.21,15.700000000000001,0.0,0.0,,,C,592498529124843
Raw,1682145872429,578875553000000,18,,-1365602214876317736,-0.23824119567871094,265.86075546219945,-12.565907279584332,23.236910181431917,13,19,0.0,16399,542690356238230,61,22.5,181.57821655273438,0.999500036239624,16,0.0,0.0,1575420030,,,,0,,1,0.21,18.9,0.0,0.0,,,C,592498529124843
Raw,1682145872429,578875553000000,18,,-1365602214876317736,-0.23824119567871094,265.86075546219945,-12.565907279584332,23.236910181431917,13,14,0.0,49359,35072364067842,139,16.0,-349.2408142089844,8.292500495910645,16,0.0,0.0,1598062460,,,,0,,3,-0.02,12.0,3848.5546875,27.64814567565918,,,C,592498529124843
Raw,1682145872429,578875553000000,18,,-1365602214876317736,-0.23824119567871094,265.86075546219945,-12.565907279584332,23.236910181431917,13,24,0.0,49359,35072357732884,21,30.6,587.3988037109375,0.06132906675338745,16,0.0,0.0,1603124990,,,,0,,3,-0.02,26.6,3848.5546875,27.64814567565918,,,C,592498529124843
Raw,1682145872429,578875553000000,18,,-1365602214876317736,-0.23824119567871094,265.86075546219945,-12.565907279584332,23.236910181431917,13,1,0.0,23567,542690349236442,53,24.2,-84.45176696777344,0.11758067458868027,16,0.0,0.0,1575420030,,,,0,,6,0.23,19.9,-1475.213134765625,28.482223510742188,,,C,592498529124843
Status,1682145872000,30,0,1,6,1575420030,32.20,5.0,76.0,1,1,0,28.6
Status,1682145872000,30,1,1,11,1575420030,19.90,221.0,53.0,1,1,0,16.3
Status,1682145872000,30,2,1,17,1575420030,19.30,29.0,26.0,1,1,0,15.699999
Status,1682145872000,30,3,1,19,1575420030,22.50,359.0,38.0,1,1,0,18.9
Status,1682145872000,30,4,1,3,1575420030,0.00,50.0,1.0,0,1,0,0.0
Status,1682145872000,30,5,1,5,1575420030,0.00,0.0,0.0,0,1,0,0.0
Status,1682145872000,30,6,1,13,1575420030,0.00,225.0,15.0,0,1,0,0.0
Status,1682145872000,30,7,1,14,1575420030,0.00,90.0,41.0,0,1,0,0.0
Status,1682145872000,30,8,1,15,1575420030,0.00,0.0,0.0,0,1,0,0.0
Status,1682145872000,30,9,1,20,1575420030,0.00,186.0,20.0,0,1,0,0.0
Status,1682145872000,30,10,1,24,1575420030,0.00,307.0,21.0,0,1,0,0.0
Status,1682145872000,30,11,1,30,1575420030,0.00,161.0,24.0,0,1,0,0.0
Status,1682145872000,30,12,2,128,1575420030,32.10,0.0,0.0,0,0,0,28.499998
Status,1682145872000,30,13,3,14,1598062460,16.00,6.0,65.0,0,1,0,12.0
Status,1682145872000,30,14,3,24,1603124990,30.60,6.0,32.0,1,1,0,26.6
Status,1682145872000,30,15,3,17,1604249980,14.20,291.0,52.0,1,1,0,10.2
Status,1682145872000,30,16,3,2,1599750020,0.00,0.0,0.0,0,1,0,0.0
Status,1682145872000,30,17,3,18,1600312450,0.00,238.0,21.0,0,1,0,0.0
Status,1682145872000,30,18,3,13,1600875010,0.00,134.0,43.0,0,1,0,0.0
Status,1682145872000,30,19,3,12,1601437440,0.00,0.0,0.0,0,1,0,0.0
Status,1682145872000,30,20,3,15,1602000000,0.00,336.0,16.0,0,1,0,0.0
Status,1682145872000,30,21,6,1,1575420030,24.20,62.0,57.0,1,1,0,19.900002
Status,1682145872000,30,22,6,10,1575420030,14.80,221.0,18.0,1,1,0,10.5
Status,1682145872000,30,23,6,26,1575420030,19.50,30.0,26.0,1,1,0,15.2
Status,1682145872000,30,24,6,33,1575420030,18.70,355.0,74.0,0,1,0,14.400001
Status,1682145872000,30,25,6,4,1575420030,0.00,223.0,10.0,0,1,0,0.0
Status,1682145872000,30,26,6,12,1575420030,0.00,226.0,43.0,0,1,0,0.0
Status,1682145872000,30,27,6,19,1575420030,0.00,168.0,7.0,0,1,0,0.0
Status,1682145872000,30,28,6,21,1575420030,0.00,113.0,24.0,0,1,0,0.0
Status,1682145872000,30,29,6,31,1575420030,0.00,338.0,34.0,0,1,0,0.0
Fix,GPS,13.0075719800,80.2500881500,-102.38687133789062,0.0,24.717562,,1682145873000,0.51971143,,592499099300675,22.147898
Status,1682145873000,30,0,1,6,1575420030,32.70,5.0,76.0,1,1,0,29.1
Status,1682145873000,30,1,1,11,1575420030,19.90,221.0,53.0,1,1,0,16.3
Status,1682145873000,30,2,1,17,1575420030,21.60,29.0,26.0,1,1,0,18.0
Status,1682145873000,30,3,1,19,1575420030,22.90,359.0,38.0,1,1,0,19.3
Status,1682145873000,30,4,1,3,1575420030,0.00,50.0,1.0,0,1,0,0.0
Status,1682145873000,30,5,1,5,1575420030,0.00,0.0,0.0,0,1,0,0.0
Status,1682145873000,30,6,1,13,1575420030,0.00,225.0,15.0,0,1,0,0.0
Status,1682145873000,30,7,1,14,1575420030,0.00,90.0,41.0,0,1,0,0.0
Status,1682145873000,30,8,1,15,1575420030,0.00,0.0,0.0,0,1,0,0.0
Status,1682145873000,30,9,1,20,1575420030,0.00,186.0,20.0,0,1,0,0.0
Status,1682145873000,30,10,1,24,1575420030,0.00,307.0,21.0,0,1,0,0.0
Status,1682145873000,30,11,1,30,1575420030,0.00,161.0,24.0,0,1,0,0.0
Status,1682145873000,30,12,2,128,1575420030,32.10,0.0,0.0,0,0,0,28.499998
Status,1682145873000,30,13,3,14,1598062460,16.00,6.0,65.0,1,1,0,12.0
Status,1682145873000,30,14,3,24,1603124990,29.70,6.0,32.0,1,1,0,25.7
Status,1682145873000,30,15,3,17,1604249980,14.20,291.0,52.0,1,1,0,10.2
Status,1682145873000,30,16,3,2,1599750020,0.00,0.0,0.0,0,1,0,0.0
Status,1682145873000,30,17,3,18,1600312450,0.00,238.0,21.0,0,1,0,0.0
Status,1682145873000,30,18,3,13,1600875010,0.00,134.0,43.0,0,1,0,0.0
Status,1682145873000,30,19,3,12,1601437440,0.00,0.0,0.0,0,1,0,0.0
Status,1682145873000,30,20,3,15,1602000000,0.00,336.0,16.0,0,1,0,0.0
Status,1682145873000,30,21,6,1,1575420030,25.00,62.0,57.0,1,1,0,20.7
Status,1682145873000,30,22,6,10,1575420030,14.80,221.0,18.0,1,1,0,10.5
Status,1682145873000,30,23,6,26,1575420030,19.50,30.0,26.0,1,1,0,15.2
Status,1682145873000,30,24,6,33,1575420030,18.70,355.0,74.0,0,1,0,14.400001
Status,1682145873000,30,25,6,4,1575420030,0.00,223.0,10.0,0,1,0,0.0
Status,1682145873000,30,26,6,12,1575420030,0.00,226.0,43.0,0,1,0,0.0
Status,1682145873000,30,27,6,19,1575420030,0.00,168.0,7.0,0,1,0,0.0
Status,1682145873000,30,28,6,21,1575420030,0.00,113.0,24.0,0,1,0,0.0
Status,1682145873000,30,29,6,31,1575420030,0.00,338.0,34.0,0,1,0,0.0
Raw,1682145873429,578876553000000,18,,-1365602214876317737,-0.579345703125,262.2187021188438,-9.349954192858004,23.155861730795447,13,6,0.0,16399,542691362218168,16,32.7,181.27810668945312,0.054905232042074203,16,0.0,0.0,1575420030,,,,0,,1,0.21,29.1,0.0,0.0,,,C,592499526833227
Raw,1682145873429,578876553000000,18,,-1365602214876317737,-0.579345703125,262.2187021188438,-9.349954192858004,23.155861730795447,13,17,0.0,16399,542691351656939,61,21.6,260.01727294921875,1.0869998931884766,16,0.0,0.0,1575420030,,,,0,,1,0.21,18.0,0.0,0.0,,,C,592499526833227
Raw,1682145873429,578876553000000,18,,-1365602214876317737,-0.579345703125,262.2187021188438,-9.349954192858004,23.155861730795447,13,19,0.0,16399,542691356237645,53,22.9,179.74188232421875,0.999500036239624,16,0.0,0.0,1575420030,,,,0,,1,0.21,19.299999999999997,0.0,0.0,,,C,592499526833227
Raw,1682145873429,578876553000000,18,,-1365602214876317737,-0.579345703125,262.2187021188438,-9.349954192858004,23.155861730795447,13,24,0.0,49359,35073357731004,24,29.7,585.5150146484375,1.2147201299667358,16,0.0,0.0,1603124990,,,,0,,3,-0.03,25.7,3853.349365234375,26.779434204101562,,,C,592499526833227
Raw,1682145873429,578876553000000,18,,-1365602214876317737,-0.579345703125,262.2187021188438,-9.349954192858004,23.155861730795447,13,1,0.0,23567,542691349236758,46,25.0,-86.50904846191406,2.9166481494903564,16,0.0,0.0,1575420030,,,,0,,6,0.2,20.7,-1477.7896728515625,28.047855377197266,,,C,592499526833227
Fix,GPS,13.0075727100,80.2500877600,-102.20028686523438,0.0,22.29439,,1682145874000,0.66128665,,592500098824164,20.03748
Status,1682145874000,30,0,1,6,1575420030,32.60,5.0,76.0,1,1,0,28.999998
Status,1682145874000,30,1,1,11,1575420030,19.90,221.0,53.0,1,1,0,16.3
Status,1682145874000,30,2,1,14,1575420030,15.70,90.0,41.0,0,1,0,12.1
Status,1682145874000,30,3,1,17,1575420030,21.60,29.0,26.0,1,1,0,18.0
Status,1682145874000,30,4,1,19,1575420030,23.70,359.0,38.0,1,1,0,20.1
Status,1682145874000,30,5,1,3,1575420030,0.00,50.0,1.0,0,1,0,0.0
Status,1682145874000,30,6,1,5,1575420030,0.00,0.0,0.0,0,1,0,0.0
Status,1682145874000,30,7,1,13,1575420030,0.00,225.0,15.0,0,1,0,0.0
Status,1682145874000,30,8,1,15,1575420030,0.00,0.0,0.0,0,1,0,0.0
Status,1682145874000,30,9,1,20,1575420030,0.00,186.0,20.0,0,1,0,0.0
Status,1682145874000,30,10,1,24,1575420030,0.00,307.0,21.0,0,1,0,0.0
Status,1682145874000,30,11,1,30,1575420030,0.00,161.0,24.0,0,1,0,0.0
Status,1682145874000,30,12,2,128,1575420030,32.10,0.0,0.0,0,0,0,28.499998
Status,1682145874000,30,13,3,14,1598062460,16.00,6.0,65.0,1,1,0,12.0
Status,1682145874000,30,14,3,24,1603124990,30.10,6.0,32.0,1,1,0,26.1
Status,1682145874000,30,15,3,17,1604249980,14.20,291.0,52.0,1,1,0,10.2
Status,1682145874000,30,16,3,2,1599750020,0.00,0.0,0.0,0,1,0,0.0
Status,1682145874000,30,17,3,18,1600312450,0.00,238.0,21.0,0,1,0,0.0
Status,1682145874000,30,18,3,13,1600875010,0.00,134.0,43.0,0,1,0,0.0
Status,1682145874000,30,19,3,12,1601437440,0.00,0.0,0.0,0,1,0,0.0
Status,1682145874000,30,20,3,15,1602000000,0.00,336.0,16.0,0,1,0,0.0
Status,1682145874000,30,21,6,1,1575420030,24.20,62.0,57.0,1,1,0,19.900002
Status,1682145874000,30,22,6,10,1575420030,14.80,221.0,18.0,1,1,0,10.5
Status,1682145874000,30,23,6,26,1575420030,19.50,30.0,26.0,1,1,0,15.2
Status,1682145874000,30,24,6,33,1575420030,18.70,355.0,74.0,0,1,0,14.400001
Status,1682145874000,30,25,6,4,1575420030,0.00,223.0,10.0,0,1,0,0.0
Status,1682145874000,30,26,6,12,1575420030,0.00,226.0,43.0,0,1,0,0.0
Status,1682145874000,30,27,6,19,1575420030,0.00,168.0,7.0,0,1,0,0.0
Status,1682145874000,30,28,6,21,1575420030,0.00,113.0,24.0,0,1,0,0.0
Status,1682145874000,30,29,6,31,1575420030,0.00,338.0,34.0,0,1,0,0.0
Raw,1682145874429,578877553000000,18,,-1365602214876317755,-0.31172752380371094,244.9218009132892,-13.239906837662453,27.451108321902687,13,6,0.0,16399,542692362217581,16,32.6,179.432861328125,0.054905232042074203,16,0.0,0.0,1575420030,,,,0,,1,0.21,29.0,0.0,0.0,,,C,592500528703123
Raw,1682145874429,578877553000000,18,,-1365602214876317755,-0.31172752380371094,244.9218009132892,-13.239906837662453,27.451108321902687,13,14,0.0,16399,542692356536058,139,15.7,146.193115234375,8.425500869750977,16,0.0,0.0,1575420030,,,,0,,1,0.21,12.1,0.0,0.0,,,C,592500528703123
Raw,1682145874429,578877553000000,18,,-1365602214876317755,-0.31172752380371094,244.9218009132892,-13.239906837662453,27.451108321902687,13,19,0.0,16399,542692356237055,46,23.7,178.0577850341797,0.9194999933242798,16,0.0,0.0,1575420030,,,,0,,1,0.21,20.099999999999998,0.0,0.0,,,C,592500528703123
Raw,1682145874429,578877553000000,18,,-1365602214876317755,-0.31172752380371094,244.9218009132892,-13.239906837662453,27.451108321902687,13,24,0.0,49359,35074357729081,21,30.1,583.4420776367188,0.6223441958427429,16,0.0,0.0,1603124990,,,,0,,3,-0.04,26.1,3857.6328125,25.78078269958496,,,C,592500528703123
Raw,1682145874429,578877553000000,18,,-1365602214876317755,-0.31172752380371094,244.9218009132892,-13.239906837662453,27.451108321902687,13,1,0.0,23567,542692349237037,53,24.2,-88.36226654052734,2.401104688644409,16,0.0,0.0,1575420030,,,,0,,6,0.2,19.9,-1480.6588134765625,27.49641227722168,,,C,592500528703123
Fix,GPS,13.0076050100,80.2500424900,-96.51791381835938,0.0,20.333921,,1682145875000,0.9876234,,592501099439946,18.16083
Status,1682145875000,29,0,1,6,1575420030,31.60,5.0,76.0,1,1,0,28.0
Status,1682145875000,29,1,1,11,1575420030,19.90,221.0,53.0,1,1,0,16.3
Status,1682145875000,29,2,1,14,1575420030,15.70,90.0,41.0,1,1,0,12.1
Status,1682145875000,29,3,1,17,1575420030,21.60,29.0,26.0,1,1,0,18.0
Status,1682145875000,29,4,1,19,1575420030,23.80,359.0,38.0,1,1,0,20.199999
Status,1682145875000,29,5,1,3,1575420030,0.00,50.0,1.0,0,1,0,0.0
Status,1682145875000,29,6,1,5,1575420030,0.00,0.0,0.0,0,1,0,0.0
Status,1682145875000,29,7,1,13,1575420030,0.00,225.0,15.0,0,1,0,0.0
Status,1682145875000,29,8,1,15,1575420030,0.00,0.0,0.0,0,1,0,0.0
Status,1682145875000,29,9,1,20,1575420030,0.00,186.0,20.0,0,1,0,0.0
Status,1682145875000,29,10,1,24,1575420030,0.00,307.0,21.0,0,1,0,0.0
Status,1682145875000,29,11,1,30,1575420030,0.00,161.0,24.0,0,1,0,0.0
Status,1682145875000,29,12,2,128,1575420030,32.10,0.0,0.0,0,0,0,28.499998
Status,1682145875000,29,13,3,14,1598062460,16.00,6.0,65.0,1,1,0,12.0
Status,1682145875000,29,14,3,24,1603124990,29.80,6.0,32.0,1,1,0,25.8
Status,1682145875000,29,15,3,17,1604249980,14.20,291.0,52.0,0,1,0,10.2
Status,1682145875000,29,16,3,2,1599750020,0.00,0.0,0.0,0,1,0,0.0
Status,1682145875000,29,17,3,18,1600312450,0.00,238.0,21.0,0,1,0,0.0
Status,1682145875000,29,18,3,13,1600875010,0.00,134.0,43.0,0,1,0,0.0
Status,1682145875000,29,19,3,15,1602000000,0.00,336.0,16.0,0,1,0,0.0
Status,1682145875000,29,20,6,1,1575420030,25.60,62.0,57.0,1,1,0,21.3
Status,1682145875000,29,21,6,10,1575420030,14.80,221.0,18.0,1,1,0,10.5
Status,1682145875000,29,22,6,26,1575420030,19.50,30.0,26.0,1,1,0,15.2
Status,1682145875000,29,23,6,33,1575420030,18.70,355.0,74.0,0,1,0,14.400001
Status,1682145875000,29,24,6,4,1575420030,0.00,223.0,10.0,0,1,0,0.0
Status,1682145875000,29,25,6,12,1575420030,0.00,226.0,43.0,0,1,0,0.0
Status,1682145875000,29,26,6,19,1575420030,0.00,168.0,7.0,0,1,0,0.0
Status,1682145875000,29,27,6,21,1575420030,0.00,113.0,24.0,0,1,0,0.0
Status,1682145875000,29,28,6,31,1575420030,0.00,338.0,34.0,0,1,0,0.0
Raw,1682145875429,578878553000000,18,,-1365602214876317776,-0.203155517578125,225.65701510757208,-19.06678798129373,27.79249923270434,13,6,0.0,16399,542693362216955,17,31.6,177.77011108398438,0.05629437416791916,16,0.0,0.0,1575420030,,,,0,,1,0.21,28.0,0.0,0.0,,,C,592501524845779
Raw,1682145875429,578878553000000,18,,-1365602214876317776,-0.203155517578125,225.65701510757208,-19.06678798129373,27.79249923270434,13,19,0.0,16399,542693356236469,46,23.8,176.4783477783203,0.9194999933242798,16,0.0,0.0,1575420030,,,,0,,1,0.21,20.2,0.0,0.0,,,C,592501524845779
Raw,1682145875429,578878553000000,18,,-1365602214876317776,-0.203155517578125,225.65701510757208,-19.06678798129373,27.79249923270434,13,24,0.0,49359,35075357727037,24,29.8,581.5591430664062,0.6537049412727356,16,0.0,0.0,1603124990,,,,0,,3,-0.03,25.8,3860.693603515625,24.674097061157227,,,C,592501524845779
Raw,1682145875429,578878553000000,18,,-1365602214876317776,-0.203155517578125,225.65701510757208,-19.06678798129373,27.79249923270434,13,1,0.0,23567,542693349237318,40,25.6,-91.22463989257812,1.752203345298767,16,0.0,0.0,1575420030,,,,0,,6,0.2,21.3,-1484.8809814453125,26.742515563964844,,,C,592501524845779
Fix,GPS,13.0076054100,80.2500419900,-96.41082763671875,0.0,20.96573,,1682145876000,1.285496,,592502099043956,18.235325
